
$GPVTG,248.71,T,,M,0.25,N,0.47,K,A*31

$GPGGA,220452.000,0010.9876,S,07829.0446,W,1,04,2.29,2795.3,M,13.7,M,,*51

$GPRMC,220453.000,A,0010.9877,S,07829.0447,W,0.40,230.89,301216,,,A*63

$GPVTG,230.89,T,,M,0.40,N,0.74,K,A*3A

$GPVTG,14.63,T,,M,0.20,N,0.38,K,A*04

$GPGGA,220455.000,0010.9880,S,07829.0446,W,1,04,4.33,2793.5,M,13.7,M,,*52

$GPRMC,220456.000,A,0010.9919,S,07829.0453,W,0.84,261.55,301216,,,A*67

$GPVTG,261.55,T,,M,0.84,N,1.55,K,A*35

$GPVTG,296.86,T,,M,0.73,N,1.36,K,A*3E

$GPGGA,220458.000,0010.9931,S,07829.0459,W,1,05,1.53,2784.9,M,13.7,M,,*52

$GPRMC,220459.000,A,0010.9937,S,07829.0462,W,1.20,217.43,301216,,,A*6F

$GPVTG,217.43,T,,M,1.20,N,2.21,K,A*3C

$GPGSV,3,2,10,31,24,002,35,22,18,319,40,14,,,39,18,,,30*7A

$GPGSV,3,3,10,10,,,36,04,,,37*7C

$GPVTG,205.63,T,,M,1.34,N,2.49,K,A*36

$GPGGA,220502.000,0010.9956,S,07829.0469,W,1,06,1.46,2782.9,M,13.7,M,,*5F

$GPRMC,220503.000,A,0010.9961,S,07829.0473,W,1.75,212.40,301216,,,A*64

$GPVTG,212.40,T,,M,1.75,N,3.24,K,A*3E

$GPVTG,216.73,T,,M,1.68,N,3.11,K,A*30

$GPGGA,220505.000,0010.9967,S,07829.0480,W,1,06,1.46,2782.7,M,13.7,M,,*53

$GPRMC,220506.000,A,0010.9970,S,07829.0483,W,1.76,214.66,301216,,,A*6F

$GPVTG,214.66,T,,M,1.76,N,3.27,K,A*3C

$GPVTG,217.79,T,,M,1.94,N,3.60,K,A*3E

$GPGGA,220508.000,0010.9977,S,07829.0491,W,1,06,1.46,2782.6,M,13.7,M,,*5E

$GPRMC,220509.000,A,0010.9979,S,07829.0495,W,2.17,233.66,301216,,,A*6F

$GPVTG,233.66,T,,M,2.17,N,4.02,K,A*3D

$GPGSV,3,2,10,14,33,023,36,31,24,002,32,22,18,319,40,18,,,23*41

$GPGSV,3,3,10,10,,,31,04,,,40*7B

$GPVTG,223.55,T,,M,1.98,N,3.67,K,A*3C

$GPGGA,220512.000,0010.9992,S,07829.0509,W,1,06,1.46,2782.5,M,13.7,M,,*5D

$GPRMC,220513.000,A,0010.9997,S,07829.0513,W,1.85,212.17,301216,,,A*66

$GPVTG,212.17,T,,M,1.85,N,3.43,K,A*32

$GPVTG,226.61,T,,M,1.71,N,3.17,K,A*3E

$GPGGA,220515.000,0011.0004,S,07829.0519,W,1,06,1.46,2782.5,M,13.7,M,,*55

$GPRMC,220516.000,A,0011.0007,S,07829.0523,W,1.88,232.08,301216,,,A*69

$GPVTG,232.08,T,,M,1.88,N,3.48,K,A*38

$GPVTG,251.15,T,,M,1.71,N,3.17,K,A*3D

$GPGGA,220518.000,0011.0012,S,07829.0531,W,1,06,1.46,2782.5,M,13.7,M,,*55

$GPRMC,220519.000,A,0011.0014,S,07829.0533,W,1.08,237.09,301216,,,A*69

$GPVTG,237.09,T,,M,1.08,N,1.99,K,A*3A

$GPGSV,3,2,12,14,33,023,35,31,24,002,33,22,18,319,39,01,06,277,*72

$GPGSV,3,3,12,18,,,31,10,,,32,04,,,43,27,,,40*73

$GPVTG,218.13,T,,M,1.12,N,2.07,K,A*33

$GPGGA,220522.000,0011.0022,S,07829.0542,W,1,06,1.46,2782.1,M,13.7,M,,*5F

$GPRMC,220523.000,A,0011.0026,S,07829.0544,W,1.05,205.72,301216,,,A*61

$GPVTG,205.72,T,,M,1.05,N,1.94,K,A*37

$GPVTG,242.77,T,,M,0.72,N,1.34,K,A*3A

$GPGGA,220525.000,0011.0030,S,07829.0548,W,1,06,1.46,2782.3,M,13.7,M,,*53

$GPRMC,220526.000,A,0011.0034,S,07829.0552,W,1.98,226.53,301216,,,A*66

$GPVTG,226.53,T,,M,1.98,N,3.67,K,A*3F

$GPVTG,213.83,T,,M,1.75,N,3.25,K,A*31

$GPGGA,220528.000,0011.0041,S,07829.0558,W,1,06,1.46,2782.6,M,13.7,M,,*5C

$GPRMC,220529.000,A,0011.0045,S,07829.0561,W,1.93,223.39,301216,,,A*6D

$GPVTG,223.39,T,,M,1.93,N,3.58,K,A*31

$GPGSV,3,2,11,14,33,023,34,31,24,002,35,22,18,319,39,01,06,277,*76

$GPGSV,3,3,11,18,,,22,10,,,30,27,,,36*72

$GPVTG,230.46,T,,M,1.72,N,3.18,K,A*30

$GPGGA,220532.000,0011.0054,S,07829.0571,W,1,07,1.22,2782.9,M,13.7,M,,*54

$GPRMC,220533.000,A,0011.0057,S,07829.0575,W,1.80,225.89,301216,,,A*6F

$GPVTG,225.89,T,,M,1.80,N,3.33,K,A*33

$GPVTG,233.89,T,,M,1.69,N,3.13,K,A*31

$GPGGA,220535.000,0011.0062,S,07829.0582,W,1,07,1.22,2783.4,M,13.7,M,,*56

$GPRMC,220536.000,A,0011.0064,S,07829.0586,W,1.58,227.07,301216,,,A*67

$GPVTG,227.07,T,,M,1.58,N,2.93,K,A*39

$GPVTG,228.41,T,,M,1.47,N,2.73,K,A*34

$GPGGA,220538.000,0011.0068,S,07829.0594,W,1,07,1.22,2783.6,M,13.7,M,,*54

$GPRMC,220539.000,A,0011.0069,S,07829.0597,W,1.45,235.54,301216,,,A*6C

$GPVTG,235.54,T,,M,1.45,N,2.69,K,A*35

$GPGSV,3,2,11,32,36,057,29,14,33,023,34,31,24,002,36,22,18,319,36*72

$GPGSV,3,3,11,01,06,277,,18,,,19,27,,,33*48

$GPVTG,238.72,T,,M,1.57,N,2.91,K,A*38

$GPGGA,220542.000,0011.0074,S,07829.0610,W,1,07,1.22,2784.2,M,13.7,M,,*58

$GPRMC,220543.000,A,0011.0075,S,07829.0614,W,1.77,235.19,301216,,,A*6C

$GPVTG,235.19,T,,M,1.77,N,3.27,K,A*36

$GPVTG,227.58,T,,M,1.38,N,2.55,K,A*3F

$GPGGA,220545.000,0011.0080,S,07829.0621,W,1,07,1.22,2784.6,M,13.7,M,,*52

$GPRMC,220546.000,A,0011.0082,S,07829.0626,W,1.69,238.43,301216,,,A*6D

$GPVTG,238.43,T,,M,1.69,N,3.14,K,A*3B

$GPVTG,230.11,T,,M,1.74,N,3.22,K,A*3D

$GPGGA,220548.000,0011.0088,S,07829.0633,W,1,07,1.22,2784.9,M,13.7,M,,*5B

$GPRMC,220549.000,A,0011.0091,S,07829.0637,W,1.80,233.67,301216,,,A*6A

$GPVTG,233.67,T,,M,1.80,N,3.34,K,A*33

$GPGSV,3,2,11,32,36,057,35,14,33,023,34,31,24,002,36,22,18,319,38*71

$GPGSV,3,3,11,01,06,277,,18,,,18,27,,,35*4F

$GPVTG,223.54,T,,M,1.95,N,3.61,K,A*36

$GPGGA,220552.000,0011.0102,S,07829.0647,W,1,07,1.22,2785.0,M,13.7,M,,*58

$GPRMC,220553.000,A,0011.0106,S,07829.0651,W,1.69,213.72,301216,,,A*6F

$GPVTG,213.72,T,,M,1.69,N,3.12,K,A*36

$GPVTG,229.34,T,,M,1.93,N,3.58,K,A*36

$GPGGA,220555.000,0011.0114,S,07829.0658,W,1,07,1.22,2785.0,M,13.7,M,,*56

$GPRMC,220556.000,A,0011.0117,S,07829.0662,W,1.57,223.52,301216,,,A*66

$GPVTG,223.52,T,,M,1.57,N,2.91,K,A*30

$GPVTG,207.59,T,,M,1.27,N,2.36,K,A*37

$GPGGA,220558.000,0011.0123,S,07829.0665,W,1,07,1.22,2785.1,M,13.7,M,,*50

$GPRMC,220559.000,A,0011.0126,S,07829.0667,W,0.92,207.21,301216,,,A*64

$GPVTG,207.21,T,,M,0.92,N,1.70,K,A*36

$GPGSV,3,2,11,32,36,057,24,14,33,023,27,31,24,002,32,22,19,319,32*7C

$GPGSV,3,3,11,01,06,277,,18,,,30,27,,,37*47

$GPVTG,276.65,T,,M,0.32,N,0.60,K,A*3A

$GPGGA,220602.000,0011.0128,S,07829.0668,W,1,07,1.22,2784.8,M,13.7,M,,*52

$GPRMC,220603.000,A,0011.0129,S,07829.0667,W,0.07,304.23,301216,,,A*6B

$GPVTG,304.23,T,,M,0.07,N,0.12,K,A*3F

$GPVTG,328.02,T,,M,0.10,N,0.18,K,A*3E

$GPGGA,220605.000,0011.0128,S,07829.0668,W,1,07,1.22,2784.6,M,13.7,M,,*5B

$GPRMC,220606.000,A,0011.0129,S,07829.0668,W,1.24,205.62,301216,,,A*64

$GPVTG,205.62,T,,M,1.24,N,2.30,K,A*38

$GPVTG,190.82,T,,M,2.40,N,4.45,K,A*3C

$GPGGA,220608.000,0011.0140,S,07829.0671,W,1,07,1.22,2784.5,M,13.7,M,,*53

$GPRMC,220609.000,A,0011.0145,S,07829.0674,W,2.15,215.80,301216,,,A*60

$GPVTG,215.80,T,,M,2.15,N,3.99,K,A*36

$GPGSV,3,2,11,32,36,058,34,14,33,023,36,31,24,002,32,22,19,319,40*77

$GPGSV,3,3,11,01,07,277,,18,,,24,27,,,27*42

$GPVTG,226.04,T,,M,2.05,N,3.81,K,A*32

$GPGGA,220612.000,0011.0156,S,07829.0685,W,1,07,1.22,2784.2,M,13.7,M,,*53

$GPRMC,220613.000,A,0011.0159,S,07829.0689,W,1.81,221.70,301216,,,A*62

$GPVTG,221.70,T,,M,1.81,N,3.35,K,A*36

$GPVTG,220.27,T,,M,1.81,N,3.36,K,A*36

$GPGGA,220615.000,0011.0167,S,07829.0696,W,1,07,1.22,2784.1,M,13.7,M,,*57

$GPRMC,220616.000,A,0011.0171,S,07829.0700,W,2.03,220.61,301216,,,A*65

$GPVTG,220.61,T,,M,2.03,N,3.77,K,A*38

$GPVTG,217.20,T,,M,2.08,N,3.85,K,A*3F

$GPGGA,220618.000,0011.0180,S,07829.0707,W,1,07,1.22,2784.0,M,13.7,M,,*5B

$GPRMC,220619.000,A,0011.0184,S,07829.0710,W,1.95,226.72,301216,,,A*69

$GPVTG,226.72,T,,M,1.95,N,3.61,K,A*37

$GPGSV,3,2,12,32,36,058,36,14,33,023,33,31,24,002,34,27,23,189,38*7D

$GPGSV,3,3,12,22,19,319,37,01,07,277,,03,05,323,19,18,,,28*46

$GPVTG,222.13,T,,M,2.17,N,4.01,K,A*3C

$GPGGA,220622.000,0011.0192,S,07829.0722,W,1,08,1.10,2785.3,M,13.7,M,,*5A

$GPRMC,220623.000,A,0011.0195,S,07829.0726,W,1.97,219.83,301216,,,A*65

$GPVTG,219.83,T,,M,1.97,N,3.65,K,A*33

$GPVTG,222.24,T,,M,1.76,N,3.26,K,A*3E

$GPGGA,220625.000,0011.0201,S,07829.0733,W,1,08,1.10,2786.0,M,13.7,M,,*54

$GPRMC,220626.000,A,0011.0205,S,07829.0736,W,2.09,219.56,301216,,,A*67

$GPVTG,219.56,T,,M,2.09,N,3.86,K,A*32

$GPVTG,216.50,T,,M,2.04,N,3.78,K,A*37

$GPGGA,220628.000,0011.0213,S,07829.0744,W,1,08,1.10,2786.2,M,13.7,M,,*58

$GPRMC,220629.000,A,0011.0216,S,07829.0748,W,1.83,229.43,301216,,,A*65

$GPVTG,229.43,T,,M,1.83,N,3.39,K,A*30

$GPGSV,3,2,12,32,36,058,34,14,33,024,32,31,24,002,33,27,23,189,33*75

$GPGSV,3,3,12,22,19,319,32,01,07,277,,03,05,323,,18,,,32*40

$GPVTG,210.07,T,,M,1.63,N,3.03,K,A*3D

$GPGGA,220632.000,0011.0227,S,07829.0757,W,1,08,1.10,2786.8,M,13.7,M,,*5C

$GPRMC,220633.000,A,0011.0232,S,07829.0760,W,2.33,204.52,301216,,,A*65

$GPVTG,204.52,T,,M,2.33,N,4.32,K,A*3B

$GPVTG,204.98,T,,M,2.20,N,4.08,K,A*36

$GPGGA,220635.000,0011.0243,S,07829.0765,W,1,08,1.09,2787.2,M,13.7,M,,*5B

$GPRMC,220636.000,A,0011.0247,S,07829.0769,W,2.14,226.42,301216,,,A*6F

$GPVTG,226.42,T,,M,2.14,N,3.96,K,A*36

$GPVTG,221.63,T,,M,1.93,N,3.58,K,A*3C

$GPGGA,220638.000,0011.0254,S,07829.0776,W,1,08,1.10,2787.6,M,13.7,M,,*5E

$GPRMC,220639.000,A,0011.0259,S,07829.0779,W,2.06,216.77,301216,,,A*68

$GPVTG,216.77,T,,M,2.06,N,3.81,K,A*36

$GPGSV,3,2,12,32,36,058,30,14,33,024,28,31,24,003,34,27,23,189,36*79

$GPGSV,3,3,12,22,19,319,34,01,07,277,,03,05,323,17,18,,,33*41

$GPVTG,205.61,T,,M,1.57,N,2.91,K,A*34

$GPGGA,220642.000,0011.0272,S,07829.0787,W,1,08,1.10,2787.9,M,13.7,M,,*56

$GPRMC,220643.000,A,0011.0276,S,07829.0789,W,2.05,209.40,301216,,,A*6E

$GPVTG,209.40,T,,M,2.05,N,3.80,K,A*3E

$GPVTG,221.67,T,,M,1.89,N,3.51,K,A*3A

$GPGGA,220645.000,0011.0284,S,07829.0796,W,1,08,1.10,2788.1,M,13.7,M,,*5F

$GPRMC,220646.000,A,0011.0288,S,07829.0800,W,2.05,222.57,301216,,,A*6B

$GPVTG,222.57,T,,M,2.05,N,3.81,K,A*30

$GPVTG,223.78,T,,M,1.94,N,3.60,K,A*38

$GPGGA,220648.000,0011.0296,S,07829.0807,W,1,08,1.09,2788.5,M,13.7,M,,*5A

$GPRMC,220649.000,A,0011.0299,S,07829.0807,W,0.84,176.47,301216,,,A*6B

$GPVTG,176.47,T,,M,0.84,N,1.56,K,A*30

$GPGSV,3,2,12,32,36,058,40,14,33,024,29,31,24,003,29,27,23,189,40*72

$GPGSV,3,3,12,22,19,319,27,01,07,276,,03,05,323,15,18,,,41*45

$GPVTG,83.21,T,,M,1.97,N,3.66,K,A*09

$GPGGA,220652.000,0011.0299,S,07829.0788,W,1,08,1.09,2788.8,M,13.7,M,,*5B

$GPRMC,220653.000,A,0011.0298,S,07829.0782,W,2.03,80.92,301216,,,A*5E

$GPVTG,80.92,T,,M,2.03,N,3.76,K,A*0D

$GPVTG,85.54,T,,M,1.84,N,3.42,K,A*09

$GPGGA,220655.000,0011.0297,S,07829.0771,W,1,08,1.09,2789.1,M,13.7,M,,*5C

$GPRMC,220656.000,A,0011.0297,S,07829.0767,W,1.51,101.00,301216,,,A*68

$GPVTG,101.00,T,,M,1.51,N,2.80,K,A*32

$GPVTG,124.79,T,,M,1.26,N,2.33,K,A*33

$GPGGA,220658.000,0011.0300,S,07829.0760,W,1,08,1.09,2789.4,M,13.7,M,,*5B

$GPRMC,220659.000,A,0011.0301,S,07829.0758,W,0.77,127.29,301216,,,A*6F

$GPVTG,127.29,T,,M,0.77,N,1.43,K,A*34

$GPGSV,3,2,12,32,36,058,31,14,33,024,21,31,24,003,25,27,23,189,36*71

$GPGSV,3,3,12,22,19,319,37,01,07,276,,03,05,323,15,18,,,33*41

$GPVTG,130.63,T,,M,0.02,N,0.03,K,A*3B

$GPGGA,220702.000,0011.0301,S,07829.0757,W,1,08,1.09,2789.7,M,13.7,M,,*53

$GPRMC,220703.000,A,0011.0300,S,07829.0758,W,0.38,295.31,301216,,,A*68

$GPVTG,295.31,T,,M,0.38,N,0.71,K,A*3C

$GPVTG,36.89,T,,M,0.19,N,0.36,K,A*04

$GPGGA,220705.000,0011.0300,S,07829.0758,W,1,08,1.09,2789.9,M,13.7,M,,*54

$GPRMC,220706.000,A,0011.0299,S,07829.0758,W,0.04,25.98,301216,,,A*59

$GPVTG,25.98,T,,M,0.04,N,0.08,K,A*07

$GPVTG,289.76,T,,M,0.02,N,0.03,K,A*3E

$GPGGA,220708.000,0011.0299,S,07829.0758,W,1,08,1.09,2789.9,M,13.7,M,,*58

$GPRMC,220709.000,A,0011.0299,S,07829.0758,W,0.31,313.38,301216,,,A*6C

$GPVTG,313.38,T,,M,0.31,N,0.57,K,A*37

$GPGSV,3,2,12,32,36,058,22,14,33,024,26,31,24,003,29,27,23,189,37*79

$GPGSV,3,3,12,22,19,319,37,01,07,276,,03,05,323,13,18,,,38*4C

$GPVTG,180.39,T,,M,0.37,N,0.68,K,A*34

$GPGGA,220712.000,0011.0299,S,07829.0758,W,1,08,1.09,2789.9,M,13.7,M,,*53

$GPRMC,220713.000,A,0011.0299,S,07829.0757,W,0.39,221.64,301216,,,A*69

$GPVTG,221.64,T,,M,0.39,N,0.73,K,A*30

$GPVTG,89.87,T,,M,0.36,N,0.67,K,A*07

$GPGGA,220715.000,0011.0300,S,07829.0757,W,1,08,1.09,2789.9,M,13.7,M,,*5A

$GPRMC,220716.000,A,0011.0301,S,07829.0757,W,0.18,124.40,301216,,,A*6F

$GPVTG,124.40,T,,M,0.18,N,0.34,K,A*30

$GPVTG,250.92,T,,M,0.07,N,0.12,K,A*35

$GPGGA,220718.000,0011.0301,S,07829.0757,W,1,08,1.09,2789.9,M,13.7,M,,*56

$GPRMC,220719.000,A,0011.0301,S,07829.0757,W,0.02,308.11,301216,,,A*63

$GPVTG,308.11,T,,M,0.02,N,0.05,K,A*31

$GPGSV,3,2,12,32,36,058,27,14,33,024,21,31,24,003,25,27,23,189,35*75

$GPGSV,3,3,12,22,19,319,36,18,17,146,39,01,07,276,,03,05,323,16*7C

$GPVTG,236.78,T,,M,0.06,N,0.12,K,D*35

$GPGGA,220722.000,0011.0301,S,07829.0757,W,2,09,0.99,2789.9,M,13.7,M,0000,0000*55

$GPRMC,220723.000,A,0011.0301,S,07829.0756,W,0.30,79.53,301216,,,D*5C

$GPVTG,79.53,T,,M,0.30,N,0.56,K,D*00

$GPVTG,44.62,T,,M,0.29,N,0.54,K,D*06

$GPGGA,220725.000,0011.0300,S,07829.0755,W,2,09,0.99,2789.9,M,13.7,M,0000,0000*51

$GPRMC,220726.000,A,0011.0299,S,07829.0756,W,0.11,0.16,301216,,,D*65

$GPVTG,0.16,T,,M,0.11,N,0.21,K,D*3C

$GPVTG,243.42,T,,M,0.38,N,0.70,K,D*37

$GPGGA,220728.000,0011.0300,S,07829.0758,W,2,09,0.99,2790.0,M,13.7,M,0000,0000*50

$GPRMC,220729.000,A,0011.0300,S,07829.0758,W,0.28,213.25,301216,,,D*6F

$GPVTG,213.25,T,,M,0.28,N,0.51,K,D*31

$GPGSV,3,2,12,32,36,058,34,14,33,024,25,31,24,003,31,27,23,189,37*74

$GPGSV,3,3,12,22,19,319,34,18,17,146,38,01,07,276,,03,05,323,15*7C

$GPVTG,116.30,T,,M,0.10,N,0.19,K,D*34

$GPGGA,220732.000,0011.0301,S,07829.0758,W,2,09,0.99,2790.0,M,13.7,M,0000,0000*5A

$GPRMC,220733.000,A,0011.0301,S,07829.0757,W,0.12,77.85,301216,,,D*59

$GPVTG,77.85,T,,M,0.12,N,0.22,K,D*06

$GPVTG,180.26,T,,M,0.73,N,1.35,K,D*36

$GPGGA,220735.000,0011.0302,S,07829.0756,W,2,09,0.99,2790.0,M,13.7,M,0000,0000*50

$GPRMC,220736.000,A,0011.0302,S,07829.0756,W,0.20,269.66,301216,,,D*6F

$GPVTG,269.66,T,,M,0.20,N,0.37,K,D*33

$GPVTG,32.13,T,,M,0.65,N,1.20,K,D*0B

$GPGGA,220738.000,0011.0300,S,07829.0755,W,2,09,0.99,2790.1,M,13.7,M,0000,0000*5D

$GPRMC,220739.000,A,0011.0301,S,07829.0754,W,0.57,144.67,301216,,,D*6C

$GPVTG,144.67,T,,M,0.57,N,1.05,K,D*3E

$GPGSV,3,2,12,32,36,058,37,14,33,024,35,31,24,003,33,27,23,189,35*76

$GPGSV,3,3,12,22,19,319,38,18,17,147,32,01,07,276,,03,05,323,15*7B

$GPVTG,49.70,T,,M,0.17,N,0.31,K,D*06

$GPGGA,220742.000,0011.0301,S,07829.0754,W,2,09,0.99,2790.3,M,13.7,M,0000,0000*52

$GPRMC,220743.000,A,0011.0300,S,07829.0755,W,0.19,329.38,301216,,,D*68

$GPVTG,329.38,T,,M,0.19,N,0.36,K,D*36

$GPVTG,298.70,T,,M,0.55,N,1.02,K,D*3F

$GPGGA,220745.000,0011.0299,S,07829.0757,W,2,09,0.99,2790.5,M,13.7,M,0000,0000*50

$GPRMC,220746.000,A,0011.0300,S,07829.0756,W,0.38,145.28,301216,,,D*64

$GPVTG,145.28,T,,M,0.38,N,0.71,K,D*3F

$GPVTG,11.72,T,,M,0.07,N,0.14,K,D*0F

$GPGGA,220748.000,0011.0299,S,07829.0757,W,2,09,1.00,2790.5,M,13.7,M,0000,0000*5C

$GPRMC,220749.000,A,0011.0299,S,07829.0758,W,0.22,276.85,301216,,,D*6B

$GPVTG,276.85,T,,M,0.22,N,0.40,K,D*32

$GPGSV,3,2,12,32,36,058,29,14,33,024,20,31,24,003,19,27,23,189,28*79

$GPGSV,3,3,12,22,19,318,36,18,17,147,31,01,07,276,,03,05,323,16*74

$GPVTG,289.49,T,,M,0.16,N,0.30,K,D*32

$GPGGA,220752.000,0011.0299,S,07829.0758,W,2,08,1.05,2790.6,M,13.7,M,0000,0000*5F

$GPRMC,220753.000,A,0011.0299,S,07829.0758,W,0.17,208.66,301216,,,D*62

$GPVTG,208.66,T,,M,0.17,N,0.32,K,D*35

$GPVTG,33.45,T,,M,0.30,N,0.56,K,D*09

$GPGGA,220755.000,0011.0298,S,07829.0755,W,2,09,0.99,2790.7,M,13.7,M,0000,0000*50

$GPRMC,220756.000,A,0011.0299,S,07829.0755,W,0.31,141.44,301216,,,D*60

$GPVTG,141.44,T,,M,0.31,N,0.58,K,D*33

$GPVTG,198.35,T,,M,0.31,N,0.57,K,D*3E

$GPGGA,220758.000,0011.0299,S,07829.0754,W,2,09,0.99,2790.7,M,13.7,M,0000,0000*5D

$GPRMC,220759.000,A,0011.0297,S,07829.0755,W,0.50,318.81,301216,,,D*61

$GPVTG,318.81,T,,M,0.50,N,0.92,K,D*35

$GPGSV,3,2,12,32,36,059,42,14,33,024,36,27,23,189,23,31,23,003,37*72

$GPGSV,3,3,12,22,19,318,37,18,17,147,32,01,07,276,,03,05,323,12*72

$GPVTG,349.60,T,,M,1.60,N,2.96,K,D*3A

$GPGGA,220802.000,0011.0281,S,07829.0755,W,2,09,0.99,2790.7,M,13.7,M,0000,0000*55

$GPRMC,220803.000,A,0011.0276,S,07829.0758,W,1.70,336.90,301216,,,D*6C

$GPVTG,336.90,T,,M,1.70,N,3.15,K,D*36

$GPVTG,339.35,T,,M,1.75,N,3.24,K,D*31

$GPGGA,220805.000,0011.0265,S,07829.0760,W,2,09,0.99,2790.5,M,13.7,M,0000,0000*5C

$GPRMC,220806.000,A,0011.0260,S,07829.0762,W,1.79,350.22,301216,,,D*67

$GPVTG,350.22,T,,M,1.79,N,3.32,K,D*33

$GPVTG,351.17,T,,M,1.72,N,3.18,K,D*37

$GPGGA,220808.000,0011.0250,S,07829.0764,W,2,09,0.99,2790.5,M,13.7,M,0000,0000*53

$GPRMC,220809.000,A,0011.0246,S,07829.0766,W,1.60,349.45,301216,,,D*69

$GPVTG,349.45,T,,M,1.60,N,2.97,K,D*3C

$GPGSV,4,2,13,32,36,059,43,14,33,024,41,27,23,189,28,31,23,003,40*7E

$GPGSV,4,3,13,22,19,318,23,18,17,147,39,01,07,276,,29,05,070,21*77

$GPRMC,220811.000,A,0011.0238,S,07829.0769,W,1.51,348.94,301216,,,D*69

$GPVTG,348.94,T,,M,1.51,N,2.80,K,D*35

$GPVTG,352.31,T,,M,1.80,N,3.33,K,D*34

$GPGGA,220813.000,0011.0229,S,07829.0769,W,2,09,0.99,2790.5,M,13.7,M,0000,0000*5A

$GPRMC,220814.000,A,0011.0225,S,07829.0769,W,1.34,348.35,301216,,,D*68

$GPVTG,348.35,T,,M,1.34,N,2.48,K,D*39

$GPGSV,4,2,13,32,36,059,43,14,33,024,40,27,23,189,29,31,23,003,41*7F

$GPGSV,4,3,13,22,19,318,36,18,17,147,40,01,07,276,,29,05,070,24*78

$GPRMC,220816.000,A,0011.0217,S,07829.0770,W,1.51,5.48,301216,,,D*60

$GPVTG,5.48,T,,M,1.51,N,2.80,K,D*3E

$GPVTG,3.07,T,,M,1.75,N,3.24,K,D*3A

$GPGGA,220818.000,0011.0208,S,07829.0770,W,2,09,0.99,2790.3,M,13.7,M,0000,0000*5C

$GPRMC,220819.000,A,0011.0204,S,07829.0770,W,1.39,10.46,301216,,,D*59

$GPVTG,10.46,T,,M,1.39,N,2.58,K,D*0F

$GPGSV,4,2,13,32,36,059,43,14,33,024,40,27,23,189,30,31,23,003,41*77

$GPGSV,4,3,13,22,20,318,33,18,16,147,39,01,07,276,,29,05,070,17*78

$GPRMC,220821.000,A,0011.0195,S,07829.0770,W,1.62,359.66,301216,,,D*6B

$GPVTG,359.66,T,,M,1.62,N,3.00,K,D*31

$GPVTG,353.17,T,,M,1.67,N,3.09,K,D*31

$GPGGA,220823.000,0011.0185,S,07829.0771,W,2,09,0.99,2790.2,M,13.7,M,0000,0000*52

$GPRMC,220824.000,A,0011.0181,S,07829.0772,W,1.42,1.40,301216,,,D*61

$GPVTG,1.40,T,,M,1.42,N,2.64,K,D*3A

$GPGSV,4,2,13,32,36,059,42,14,33,024,40,27,23,189,26,31,23,003,43*73

$GPGSV,4,3,13,22,20,318,33,18,16,147,38,01,07,276,,29,05,070,27*7A

$GPRMC,220826.000,A,0011.0172,S,07829.0773,W,1.47,343.00,301216,,,D*6A

$GPVTG,343.00,T,,M,1.47,N,2.72,K,D*39

$GPVTG,4.78,T,,M,1.43,N,2.64,K,D*35

$GPGGA,220828.000,0011.0164,S,07829.0773,W,2,09,0.99,2790.2,M,13.7,M,0000,0000*54

$GPRMC,220829.000,A,0011.0160,S,07829.0772,W,1.49,7.72,301216,,,D*6F

$GPVTG,7.72,T,,M,1.49,N,2.76,K,D*35

$GPGSV,4,2,13,32,36,059,42,14,33,024,41,27,23,189,29,31,23,003,41*7F

$GPGSV,4,3,13,22,20,318,28,18,16,147,39,01,07,276,,29,05,070,21*77

$GPRMC,220831.000,A,0011.0152,S,07829.0769,W,1.63,22.52,301216,,,D*50

$GPVTG,22.52,T,,M,1.63,N,3.02,K,D*0A

$GPVTG,19.16,T,,M,1.44,N,2.66,K,D*04

$GPGGA,220833.000,0011.0143,S,07829.0766,W,2,09,0.99,2790.3,M,13.7,M,0000,0000*5E

$GPRMC,220834.000,A,0011.0139,S,07829.0765,W,1.61,20.62,301216,,,D*57

$GPVTG,20.62,T,,M,1.61,N,2.98,K,D*0B

$GPGSV,4,2,13,32,36,059,43,14,33,024,40,27,23,189,31,31,23,003,42*75

$GPGSV,4,3,13,22,20,318,26,18,16,147,39,01,07,276,,29,05,070,20*78

$GPRMC,220836.000,A,0011.0129,S,07829.0762,W,1.68,5.04,301216,,,D*6D

$GPVTG,5.04,T,,M,1.68,N,3.12,K,D*36

$GPVTG,15.44,T,,M,1.62,N,3.00,K,D*0A

$GPGGA,220838.000,0011.0120,S,07829.0761,W,2,09,0.99,2790.3,M,13.7,M,0000,0000*57

$GPRMC,220839.000,A,0011.0115,S,07829.0760,W,1.55,7.92,301216,,,D*6C

$GPVTG,7.92,T,,M,1.55,N,2.88,K,D*37

$GPGSV,4,2,13,32,36,059,44,14,33,024,40,27,23,189,36,31,23,003,41*76

$GPGSV,4,3,13,22,20,318,33,18,16,147,38,01,07,276,,03,06,323,*71

$GPRMC,220841.000,A,0011.0105,S,07829.0758,W,1.70,8.56,301216,,,D*69

$GPVTG,8.56,T,,M,1.70,N,3.14,K,D*33

$GPVTG,1.36,T,,M,1.62,N,3.01,K,D*3B

$GPGGA,220843.000,0011.0096,S,07829.0757,W,2,09,0.99,2790.4,M,13.7,M,0000,0000*55

$GPRMC,220844.000,A,0011.0091,S,07829.0757,W,2.26,352.89,301216,,,D*61

$GPVTG,352.89,T,,M,2.26,N,4.19,K,D*37

$GPGSV,4,2,13,32,36,059,42,14,33,024,38,27,23,189,27,31,23,003,29*71

$GPGSV,4,3,13,22,20,318,26,18,16,147,35,01,07,276,,03,06,323,19*70

$GPRMC,220846.000,A,0011.0081,S,07829.0762,W,1.59,323.82,301216,,,D*62

$GPVTG,323.82,T,,M,1.59,N,2.95,K,D*33

$GPVTG,357.56,T,,M,1.26,N,2.33,K,D*3D

$GPGGA,220848.000,0011.0074,S,07829.0763,W,2,09,0.99,2790.5,M,13.7,M,0000,0000*54

$GPRMC,220849.000,A,0011.0071,S,07829.0761,W,1.41,17.47,301216,,,D*55

$GPVTG,17.47,T,,M,1.41,N,2.61,K,D*0C

$GPGSV,4,2,13,32,36,059,43,14,34,025,38,27,23,189,31,31,23,003,39*70

$GPGSV,4,3,13,22,20,318,33,18,16,147,35,01,07,276,,03,06,323,29*77

$GPRMC,220851.000,A,0011.0063,S,07829.0760,W,1.51,358.50,301216,,,D*61

$GPVTG,358.50,T,,M,1.51,N,2.80,K,D*3C

$GPVTG,6.36,T,,M,1.55,N,2.88,K,D*38

$GPGGA,220853.000,0011.0055,S,07829.0760,W,2,09,0.99,2790.5,M,13.7,M,0000,0000*5E

$GPRMC,220854.000,A,0011.0051,S,07829.0761,W,1.12,352.33,301216,,,D*6C

$GPVTG,352.33,T,,M,1.12,N,2.08,K,D*34

$GPGSV,4,2,13,32,36,059,44,14,34,025,38,27,23,189,29,31,23,003,39*7E

$GPGSV,4,3,13,22,20,318,32,18,16,147,36,01,07,276,,03,06,323,30*7D

$GPRMC,220856.000,A,0011.0046,S,07829.0763,W,0.95,350.02,301216,,,D*64

$GPVTG,350.02,T,,M,0.95,N,1.77,K,D*31

$GPVTG,336.47,T,,M,1.37,N,2.53,K,D*3C

$GPGGA,220858.000,0011.0041,S,07829.0765,W,2,09,0.99,2790.3,M,13.7,M,0000,0000*53

$GPRMC,220859.000,A,0011.0039,S,07829.0763,W,1.06,29.87,301216,,,D*58

$GPVTG,29.87,T,,M,1.06,N,1.96,K,D*05

$GPGSV,4,2,13,32,36,059,44,14,34,025,37,27,23,189,34,31,23,003,36*72

$GPGSV,4,3,13,22,20,318,33,18,16,147,37,01,07,276,,03,06,323,32*7F

$GPRMC,220901.000,A,0011.0034,S,07829.0764,W,1.28,0.56,301216,,,D*65

$GPVTG,0.56,T,,M,1.28,N,2.37,K,D*36

$GPVTG,6.01,T,,M,1.46,N,2.71,K,D*38

$GPGGA,220903.000,0011.0027,S,07829.0764,W,2,09,0.99,2790.2,M,13.7,M,0000,0000*5C

$GPRMC,220904.000,A,0011.0022,S,07829.0764,W,1.63,345.92,301216,,,D*62

$GPVTG,345.92,T,,M,1.63,N,3.02,K,D*34

$GPGSV,4,2,13,32,36,059,44,14,34,025,40,27,24,188,30,31,23,003,40*71

$GPGSV,4,3,13,22,20,318,27,18,16,147,38,01,07,276,,03,06,323,21*77

$GPRMC,220906.000,A,0011.0014,S,07829.0764,W,1.38,2.23,301216,,,D*61

$GPVTG,2.23,T,,M,1.38,N,2.56,K,D*30

$GPVTG,1.17,T,,M,1.34,N,2.48,K,D*37

$GPGGA,220908.000,0011.0006,S,07829.0764,W,2,09,0.99,2790.2,M,13.7,M,0000,0000*54

$GPRMC,220909.000,A,0011.0002,S,07829.0764,W,1.32,8.27,301216,,,D*6D

$GPVTG,8.27,T,,M,1.32,N,2.44,K,D*37

$GPGSV,4,2,13,32,36,059,44,14,34,025,38,27,24,188,29,31,23,004,38*7E

$GPGSV,4,3,13,22,20,318,34,18,16,147,38,01,07,276,,03,06,323,28*7C

$GPRMC,220911.000,A,0010.9994,S,07829.0765,W,1.51,354.79,301216,,,D*6F

$GPVTG,354.79,T,,M,1.51,N,2.79,K,D*3D

$GPVTG,349.98,T,,M,1.39,N,2.58,K,D*33

$GPGGA,220913.000,0010.9986,S,07829.0766,W,2,09,0.99,2790.3,M,13.7,M,0000,0000*54

$GPRMC,220914.000,A,0010.9982,S,07829.0767,W,1.32,358.05,301216,,,D*6D

$GPVTG,358.05,T,,M,1.32,N,2.45,K,D*30

$GPGSV,4,2,13,32,36,059,43,14,34,025,40,27,24,188,32,31,23,004,42*71

$GPGSV,4,3,13,22,20,318,24,18,16,147,40,01,07,275,,03,06,323,31*79

$GPRMC,220916.000,A,0010.9975,S,07829.0767,W,1.13,357.05,301216,,,D*6B

$GPVTG,357.05,T,,M,1.13,N,2.10,K,D*3C

$GPVTG,17.67,T,,M,1.51,N,2.79,K,D*06

$GPGGA,220918.000,0010.9967,S,07829.0766,W,2,09,0.99,2790.2,M,13.7,M,0000,0000*51

$GPRMC,220919.000,A,0010.9963,S,07829.0765,W,1.26,13.09,301216,,,D*58

$GPVTG,13.09,T,,M,1.26,N,2.33,K,D*04

$GPGSV,4,2,13,32,36,059,40,14,34,025,43,27,24,188,25,31,23,004,43*76

$GPGSV,4,3,13,22,20,318,37,18,16,147,40,01,07,275,,03,06,323,32*78

$GPRMC,220921.000,A,0010.9957,S,07829.0764,W,1.23,359.51,301216,,,D*60

$GPVTG,359.51,T,,M,1.23,N,2.28,K,D*3B

$GPVTG,358.76,T,,M,1.44,N,2.67,K,D*35

$GPGGA,220923.000,0010.9949,S,07829.0763,W,2,10,0.92,2790.6,M,13.7,M,0000,0000*57

$GPRMC,220924.000,A,0010.9945,S,07829.0763,W,1.42,354.77,301216,,,D*6F

$GPVTG,354.77,T,,M,1.42,N,2.63,K,D*3A

$GPGSV,4,2,13,32,36,059,41,14,34,025,41,27,24,188,32,31,23,004,37*70

$GPGSV,4,3,13,22,20,318,30,18,16,147,37,01,07,275,,03,06,323,23*7F

$GPRMC,220926.000,A,0010.9938,S,07829.0764,W,1.47,358.67,301216,,,D*68

$GPVTG,358.67,T,,M,1.47,N,2.73,K,D*33

$PMTK010,001*2E

$PMTK010,002*2D

$GPVTG,353.36,T,,M,1.33,N,2.47,K,A*3D

$GPGGA,220928.210,0010.9944,S,07829.0754,W,1,09,1.00,2794.7,M,13.7,M,,*52

$GPRMC,220930.000,A,0010.9923,S,07829.0741,W,1.13,21.49,301216,,,A*57

$GPVTG,21.49,T,,M,1.13,N,2.09,K,A*0B

$GPVTG,30.20,T,,M,1.27,N,2.35,K,A*0C

$GPGGA,220932.000,0010.9910,S,07829.0741,W,1,10,0.91,2792.0,M,13.7,M,,*5F

$GPRMC,220933.000,A,0010.9906,S,07829.0746,W,1.75,27.30,301216,,,A*5C

$GPVTG,27.30,T,,M,1.75,N,3.25,K,A*0C

$GPVTG,24.74,T,,M,1.77,N,3.27,K,A*0F

$GPGGA,220935.000,0010.9899,S,07829.0752,W,1,10,0.91,2790.9,M,13.7,M,,*51

$GPRMC,220936.000,A,0010.9896,S,07829.0754,W,1.18,24.47,301216,,,A*5A

$GPVTG,24.47,T,,M,1.18,N,2.19,K,A*0A

$GPGSV,4,2,13,32,36,060,45,14,34,025,37,27,24,188,27,31,23,004,42*79

$GPGSV,4,3,13,22,20,318,25,18,16,147,40,01,07,275,,03,06,323,21*79

$GPRMC,220938.000,A,0010.9889,S,07829.0754,W,1.73,13.13,301216,,,A*52

$GPVTG,13.13,T,,M,1.73,N,3.20,K,A*09

$GPVTG,13.45,T,,M,1.75,N,3.24,K,A*08

$GPGGA,220940.000,0010.9883,S,07829.0758,W,1,10,0.91,2789.9,M,13.7,M,,*5A

$GPRMC,220941.000,A,0010.9880,S,07829.0758,W,1.27,4.79,301216,,,A*62

$GPVTG,4.79,T,,M,1.27,N,2.36,K,A*34

$GPGSV,4,2,13,32,36,060,44,14,34,025,38,27,24,188,30,31,23,004,42*71

$GPGSV,4,3,13,22,20,318,26,18,16,147,38,01,07,275,,03,06,323,24*70

$GPRMC,220943.000,A,0010.9875,S,07829.0758,W,1.28,15.62,301216,,,A*5F

$GPVTG,15.62,T,,M,1.28,N,2.37,K,A*00

$GPVTG,20.92,T,,M,1.33,N,2.46,K,A*05

$GPGGA,220945.000,0010.9868,S,07829.0756,W,1,10,0.91,2789.4,M,13.7,M,,*59

$GPRMC,220946.000,A,0010.9865,S,07829.0754,W,1.37,26.86,301216,,,A*53

$GPVTG,26.86,T,,M,1.37,N,2.54,K,A*01

$GPGSV,4,2,13,32,36,060,43,14,34,025,39,27,24,188,30,31,23,004,42*77

$GPGSV,4,3,13,22,20,318,26,18,16,147,39,01,07,275,,03,06,323,27*72

$GPRMC,220948.000,A,0010.9859,S,07829.0753,W,1.13,11.54,301216,,,A*58

$GPVTG,11.54,T,,M,1.13,N,2.10,K,A*0C

$GPVTG,20.96,T,,M,1.22,N,2.26,K,A*07

$GPGGA,220950.000,0010.9852,S,07829.0750,W,1,10,0.91,2789.1,M,13.7,M,,*57

$GPRMC,220951.000,A,0010.9849,S,07829.0749,W,1.03,21.09,301216,,,A*50

$GPVTG,21.09,T,,M,1.03,N,1.91,K,A*0C

$GPGSV,4,2,13,32,36,060,45,14,34,025,37,27,24,188,33,31,23,004,41*7F

$GPGSV,4,3,13,22,20,318,31,18,16,147,39,01,07,275,,03,06,323,27*74

$GPRMC,220953.000,A,0010.9843,S,07829.0747,W,1.17,19.82,301216,,,A*5B

$GPVTG,19.82,T,,M,1.17,N,2.17,K,A*0C

$GPVTG,23.76,T,,M,1.11,N,2.07,K,A*09

$GPGGA,220955.000,0010.9838,S,07829.0746,W,1,10,0.91,2789.0,M,13.7,M,,*58

$GPRMC,220956.000,A,0010.9835,S,07829.0746,W,0.94,17.83,301216,,,A*5B

$GPVTG,17.83,T,,M,0.94,N,1.75,K,A*0E

$GPGSV,4,2,13,32,36,060,42,14,34,025,44,27,24,188,29,31,23,004,42*74

$GPGSV,4,3,13,22,20,318,25,18,16,147,40,01,07,275,,03,06,323,20*78

$GPRMC,220958.000,A,0010.9828,S,07829.0744,W,1.33,12.63,301216,,,A*5C

$GPVTG,12.63,T,,M,1.33,N,2.47,K,A*0B

$GPVTG,4.06,T,,M,1.40,N,2.60,K,A*3E

$GPGGA,221000.000,0010.9821,S,07829.0744,W,1,10,0.91,2789.0,M,13.7,M,,*5A

$GPRMC,221001.000,A,0010.9817,S,07829.0743,W,1.32,9.42,301216,,,A*6B

$GPVTG,9.42,T,,M,1.32,N,2.44,K,A*30

$GPGSV,4,2,13,14,34,025,28,48,27,270,,27,24,188,35,31,23,004,44*7D

$GPGSV,4,3,13,22,20,318,25,18,16,147,40,01,07,275,,03,06,323,24*7C

$GPRMC,221003.000,A,0010.9808,S,07829.0740,W,1.50,19.39,301216,,,A*5D

$GPVTG,19.39,T,,M,1.50,N,2.77,K,A*09

$GPVTG,21.29,T,,M,1.42,N,2.64,K,A*02

$GPGGA,221005.000,0010.9801,S,07829.0737,W,1,10,0.91,2789.2,M,13.7,M,,*5B

$GPRMC,221006.000,A,0010.9798,S,07829.0735,W,1.51,28.18,301216,,,A*5C

$GPVTG,28.18,T,,M,1.51,N,2.80,K,A*01

$GPGSV,4,2,13,14,34,025,42,48,27,270,,27,24,188,28,31,23,004,44*7D

$GPGSV,4,3,13,22,20,318,34,18,16,147,39,01,07,275,,03,06,323,24*72

$GPRMC,221008.000,A,0010.9790,S,07829.0731,W,1.12,5.92,301216,,,A*64

$GPVTG,5.92,T,,M,1.12,N,2.07,K,A*34

$GPVTG,22.42,T,,M,0.75,N,1.38,K,A*03

$GPGGA,221010.000,0010.9785,S,07829.0729,W,1,10,0.91,2789.6,M,13.7,M,,*57

$GPRMC,221011.000,A,0010.9782,S,07829.0728,W,1.18,22.51,301216,,,A*57

$GPVTG,22.51,T,,M,1.18,N,2.19,K,A*0B

$GPGSV,4,2,13,14,34,025,42,27,24,188,34,31,23,004,44,22,20,318,30*77

$GPGSV,4,3,13,33,18,090,,18,16,147,40,01,07,275,,03,06,323,26*71

$GPRMC,221013.000,A,0010.9775,S,07829.0726,W,1.43,9.08,301216,,,A*68

$GPVTG,9.08,T,,M,1.43,N,2.66,K,A*38

$GPVTG,13.13,T,,M,1.23,N,2.27,K,A*0A

$GPGGA,221015.000,0010.9768,S,07829.0724,W,1,10,0.91,2790.1,M,13.7,M,,*53

$PMTK011,MTKGPS*08

$PMTK010,001*2E

$PMTK010,001*2E

$PMTK010,002*2D

$PMTK010,001*2E

$PMTK010,002*2D

$GPVTG,51.27,T,,M,2.05,N,3.79,K,A*06

$GPGGA,221018.782,0010.9760,S,07829.0691,W,1,10,0.91,2789.7,M,13.7,M,,*5A

$GPRMC,221020.000,A,0010.9753,S,07829.0689,W,1.88,51.06,301216,,,A*5C

$GPVTG,51.06,T,,M,1.88,N,3.48,K,A*01

$GPVTG,27.77,T,,M,1.86,N,3.44,K,A*04

$GPGGA,221022.000,0010.9746,S,07829.0692,W,1,10,0.91,2790.0,M,13.7,M,,*56

$GPRMC,221023.000,A,0010.9743,S,07829.0695,W,1.22,23.61,301216,,,A*57

$GPVTG,23.61,T,,M,1.22,N,2.25,K,A*0F

$GPVTG,32.85,T,,M,1.32,N,2.45,K,A*02

$GPGGA,221025.000,0010.9736,S,07829.0694,W,1,10,0.91,2790.0,M,13.7,M,,*50

$GPRMC,221026.000,A,0010.9732,S,07829.0694,W,1.47,9.59,301216,,,A*65

$GPVTG,9.59,T,,M,1.47,N,2.72,K,A*3D

$GPGSV,4,2,14,32,36,060,43,14,34,025,41,27,24,188,32,31,23,004,42*7D

$GPGSV,4,3,14,22,20,318,29,18,16,147,39,01,07,275,,03,06,323,25*78

$GPRMC,221028.000,A,0010.9724,S,07829.0693,W,1.26,24.58,301216,,,A*52

$GPVTG,24.58,T,,M,1.26,N,2.33,K,A*01

$GPVTG,12.93,T,,M,1.01,N,1.88,K,A*05

$GPGGA,221030.000,0010.9718,S,07829.0693,W,1,10,0.91,2790.1,M,13.7,M,,*5E

$GPRMC,221031.000,A,0010.9715,S,07829.0692,W,1.26,19.23,301216,,,A*5B

$GPVTG,19.23,T,,M,1.26,N,2.34,K,A*04

$GPGSV,4,2,14,32,36,060,44,14,34,026,37,27,24,188,32,31,23,004,40*7A

$GPGSV,4,3,14,22,20,318,29,18,16,147,37,01,07,275,,03,06,323,27*74

$GPRMC,221033.000,A,0010.9708,S,07829.0693,W,1.28,10.74,301216,,,A*51

$GPVTG,10.74,T,,M,1.28,N,2.37,K,A*02

$GPVTG,15.79,T,,M,1.44,N,2.67,K,A*05

$GPGGA,221035.000,0010.9699,S,07829.0693,W,1,10,0.91,2790.2,M,13.7,M,,*50

$GPRMC,221036.000,A,0010.9696,S,07829.0692,W,1.43,20.67,301216,,,A*5F

$GPVTG,20.67,T,,M,1.43,N,2.65,K,A*09

$GPGSV,4,2,14,32,36,060,44,14,34,026,38,27,24,188,30,31,23,004,42*75

$GPGSV,4,3,14,22,20,318,27,18,15,147,40,01,07,275,,03,06,323,25*7B

$GPRMC,221038.000,A,0010.9689,S,07829.0689,W,1.32,28.13,301216,,,A*58

$GPVTG,28.13,T,,M,1.32,N,2.44,K,A*07

$GPVTG,6.51,T,,M,1.42,N,2.63,K,A*3F

$GPGGA,221040.000,0010.9681,S,07829.0687,W,1,10,0.91,2790.3,M,13.7,M,,*5F

$GPRMC,221041.000,A,0010.9677,S,07829.0687,W,1.30,15.96,301216,,,A*58

$GPVTG,15.96,T,,M,1.30,N,2.41,K,A*03

$GPGSV,4,2,14,32,36,060,44,14,34,026,38,27,24,188,34,31,23,004,43*70

$GPGSV,4,3,14,22,20,318,34,18,15,147,40,01,07,275,,03,06,323,20*7C

$GPRMC,221043.000,A,0010.9669,S,07829.0686,W,1.52,2.34,301216,,,A*6E

$GPVTG,2.34,T,,M,1.52,N,2.81,K,A*35

$GPVTG,12.88,T,,M,0.89,N,1.64,K,A*0C

$GPGGA,221045.000,0010.9662,S,07829.0686,W,1,10,0.91,2790.5,M,13.7,M,,*50

$GPRMC,221046.000,A,0010.9659,S,07829.0683,W,1.37,34.93,301216,,,A*56

$GPVTG,34.93,T,,M,1.37,N,2.54,K,A*06

$GPGSV,4,2,14,32,36,060,44,14,34,026,39,27,24,188,34,31,23,004,44*76

$GPGSV,4,3,14,22,20,318,26,18,15,147,40,01,07,275,,03,06,323,24*7B

$GPRMC,221048.000,A,0010.9651,S,07829.0681,W,1.28,353.13,301216,,,A*66

$GPVTG,353.13,T,,M,1.28,N,2.37,K,A*37

$GPVTG,5.58,T,,M,1.35,N,2.50,K,A*35

$GPGGA,221050.000,0010.9644,S,07829.0681,W,1,10,0.91,2790.6,M,13.7,M,,*54

$GPRMC,221051.000,A,0010.9640,S,07829.0680,W,1.14,0.07,301216,,,A*60

$GPVTG,0.07,T,,M,1.14,N,2.11,K,A*3C

$GPGSV,4,2,14,14,34,026,41,48,27,270,,27,24,188,32,31,23,004,44*71

$GPGSV,4,3,14,22,20,318,21,18,15,147,39,01,07,275,,03,06,323,23*75

$GPRMC,221053.000,A,0010.9634,S,07829.0680,W,1.00,353.73,301216,,,A*62

$GPVTG,353.73,T,,M,1.00,N,1.84,K,A*30

$GPVTG,18.75,T,,M,0.77,N,1.42,K,A*01

$GPGGA,221055.000,0010.9629,S,07829.0679,W,1,10,0.91,2790.6,M,13.7,M,,*5D

$GPRMC,221056.000,A,0010.9626,S,07829.0678,W,1.10,19.80,301216,,,A*53

$GPVTG,19.80,T,,M,1.10,N,2.04,K,A*0B

$GPGSV,4,2,14,14,34,026,41,48,27,270,,27,24,188,34,31,23,004,44*77

$GPGSV,4,3,14,22,20,318,25,18,15,147,41,03,07,323,25,01,07,275,*79

$GPRMC,221058.000,A,0010.9621,S,07829.0677,W,1.02,2.62,301216,,,A*60

$GPVTG,2.62,T,,M,1.02,N,1.89,K,A*38

$GPVTG,29.76,T,,M,1.21,N,2.25,K,A*00

$GPGGA,221100.000,0010.9615,S,07829.0675,W,1,10,0.91,2790.6,M,13.7,M,,*5F

$GPRMC,221101.000,A,0010.9612,S,07829.0674,W,1.14,29.75,301216,,,A*56

$GPVTG,29.75,T,,M,1.14,N,2.11,K,A*02

$GPGSV,4,2,14,14,34,026,38,27,24,188,33,31,23,004,43,22,20,318,25*7A

$GPGSV,4,3,14,33,18,090,,18,15,147,40,03,07,323,27,01,07,275,*75

$GPRMC,221103.000,A,0010.9605,S,07829.0673,W,1.28,7.22,301216,,,A*64

$GPVTG,7.22,T,,M,1.28,N,2.37,K,A*37

$GPVTG,32.21,T,,M,1.13,N,2.10,K,A*0F

$GPGGA,221105.000,0010.9599,S,07829.0671,W,1,10,0.91,2790.5,M,13.7,M,,*5A

$GPRMC,221106.000,A,0010.9596,S,07829.0670,W,1.08,38.82,301216,,,A*5F

$GPVTG,38.82,T,,M,1.08,N,2.00,K,A*07

$GPGSV,4,2,14,14,34,026,39,27,24,188,37,31,23,004,43,22,20,318,25*7F

$GPGSV,4,3,14,33,18,090,,18,15,147,41,03,07,323,27,01,07,275,*74

$GPRMC,221108.000,A,0010.9590,S,07829.0666,W,1.32,32.22,301216,,,A*59

$GPVTG,32.22,T,,M,1.32,N,2.44,K,A*0E

$GPVTG,43.00,T,,M,0.99,N,1.83,K,A*00

$GPGGA,221110.000,0010.9585,S,07829.0663,W,1,10,0.91,2790.4,M,13.7,M,,*51

$GPRMC,221111.000,A,0010.9582,S,07829.0662,W,1.28,30.47,301216,,,A*5C

$GPVTG,30.47,T,,M,1.28,N,2.37,K,A*00

$GPGSV,4,2,14,14,34,026,38,27,24,188,38,31,23,004,39,22,20,318,23*7A

$GPGSV,4,3,14,33,18,090,28,18,15,147,39,03,07,323,23,01,07,275,*75

$PMTK011,MTKGPS*08

$PMTK010,001*2E

$PMTK011,MTKGPS*08

$PMTK010,001*2E

$PMTK011,MTKGPS*08

$PMTK010,001*2E

$PMTK011,MTKGPS*08

$PMTK010,001*2E

$PMTK011,MTKGPS*08

$PMTK010,001*2E

$GPRMC,221119.553,A,0010.9546,S,07829.0654,W,1.82,40.35,301216,,,A*58

$GPVTG,40.35,T,,M,1.82,N,3.37,K,A*03

$GPVTG,31.91,T,,M,1.67,N,3.09,K,A*0D

$GPGGA,221122.000,0010.9544,S,07829.0640,W,1,10,0.91,2786.6,M,13.7,M,,*59

$GPGSV,4,1,14,26,78,354,36,16,66,220,30,51,56,270,30,10,47,153,38*7E

$GPGSV,4,2,14,32,36,061,44,14,34,026,37,27,24,188,30,31,23,004,42*7B

$GPVTG,15.97,T,,M,1.10,N,2.03,K,A*06

$GPGGA,221125.000,0010.9540,S,07829.0638,W,1,10,0.91,2788.8,M,13.7,M,,*55

$GPRMC,221126.000,A,0010.9538,S,07829.0638,W,1.43,37.47,301216,,,A*5C

$GPVTG,37.47,T,,M,1.43,N,2.65,K,A*0D

$GPVTG,35.84,T,,M,0.90,N,1.68,K,A*01

$GPGGA,221128.000,0010.9535,S,07829.0637,W,1,10,0.91,2790.1,M,13.7,M,,*55

$GPRMC,221129.000,A,0010.9535,S,07829.0633,W,1.04,77.26,301216,,,A*55

$GPVTG,77.26,T,,M,1.04,N,1.93,K,A*07

$GPVTG,47.77,T,,M,1.02,N,1.89,K,A*0D

$GPGGA,221131.000,0010.9530,S,07829.0626,W,1,10,0.91,2791.0,M,13.7,M,,*58

$GPRMC,221132.000,A,0010.9528,S,07829.0624,W,1.32,53.09,301216,,,A*5B

$GPVTG,53.09,T,,M,1.32,N,2.45,K,A*01

$GPGSV,4,2,14,32,36,061,41,14,34,026,41,27,24,188,37,31,23,004,33*7E

$GPGSV,4,3,14,22,21,318,26,18,15,147,39,03,07,323,22,01,07,274,*72

$GPRMC,221134.000,A,0010.9523,S,07829.0619,W,1.38,32.56,301216,,,A*5F

$GPVTG,32.56,T,,M,1.38,N,2.56,K,A*04

$GPVTG,33.84,T,,M,1.38,N,2.56,K,A*0A

$GPGGA,221136.000,0010.9516,S,07829.0614,W,1,09,0.99,2792.1,M,13.7,M,,*58

$GPRMC,221137.000,A,0010.9512,S,07829.0613,W,1.42,30.22,301216,,,A*58

$GPVTG,30.22,T,,M,1.42,N,2.64,K,A*09

$GPGSV,4,2,14,32,36,061,40,14,34,026,40,27,24,188,34,31,23,004,36*78

$GPGSV,4,3,14,22,21,318,37,18,15,147,39,03,07,323,,01,07,274,*72

$GPRMC,221139.000,A,0010.9507,S,07829.0608,W,0.23,19.84,301216,,,A*59

$GPVTG,19.84,T,,M,0.23,N,0.43,K,A*0F

$GPVTG,41.25,T,,M,0.10,N,0.19,K,A*06

$GPGGA,221141.000,0010.9507,S,07829.0607,W,1,10,0.91,2791.4,M,13.7,M,,*5C

$GPRMC,221142.000,A,0010.9505,S,07829.0607,W,0.77,39.73,301216,,,A*53

$GPVTG,39.73,T,,M,0.77,N,1.42,K,A*04

$GPGSV,4,2,14,32,36,061,43,14,34,026,38,27,24,188,33,31,23,004,41*73

$GPGSV,4,3,14,22,21,318,29,18,15,147,41,03,07,323,24,01,07,274,*74

$GPRMC,221144.000,A,0010.9497,S,07829.0605,W,1.62,14.32,301216,,,A*52

$GPVTG,14.32,T,,M,1.62,N,3.00,K,A*0F

$GPVTG,21.52,T,,M,1.54,N,2.86,K,A*05

$GPGGA,221146.000,0010.9488,S,07829.0603,W,1,10,0.91,2791.2,M,13.7,M,,*5F

$GPRMC,221147.000,A,0010.9484,S,07829.0600,W,1.73,24.48,301216,,,A*58

$GPVTG,24.48,T,,M,1.73,N,3.21,K,A*02

$GPGSV,4,2,14,32,36,061,44,14,34,026,39,27,24,188,34,31,23,004,42*71

$GPGSV,4,3,14,22,21,318,37,18,15,147,34,03,07,323,29,01,07,274,*74

$GPRMC,221149.000,A,0010.9476,S,07829.0596,W,1.56,10.84,301216,,,A*57

$GPVTG,10.84,T,,M,1.56,N,2.90,K,A*09

$GPVTG,22.43,T,,M,2.06,N,3.83,K,A*06

$GPGGA,221151.000,0010.9467,S,07829.0593,W,1,10,0.91,2791.1,M,13.7,M,,*51

$GPRMC,221152.000,A,0010.9463,S,07829.0592,W,1.26,13.61,301216,,,A*52

$GPVTG,13.61,T,,M,1.26,N,2.33,K,A*0F

$GPGSV,4,2,14,32,36,061,41,14,34,026,39,27,24,188,37,31,23,005,37*74

$GPGSV,4,3,14,22,21,318,30,18,15,147,38,03,07,323,24,01,07,274,*72

$GPRMC,221154.000,A,0010.9455,S,07829.0588,W,1.41,33.06,301216,,,A*58

$GPVTG,33.06,T,,M,1.41,N,2.62,K,A*09

$GPVTG,12.37,T,,M,1.46,N,2.71,K,A*0D

$GPGGA,221156.000,0010.9448,S,07829.0586,W,1,10,0.91,2790.8,M,13.7,M,,*57

$GPRMC,221157.000,A,0010.9443,S,07829.0585,W,1.76,18.96,301216,,,A*55

$GPVTG,18.96,T,,M,1.76,N,3.27,K,A*0D

$GPGSV,4,2,14,32,36,061,42,14,34,026,40,27,24,188,32,31,23,005,41*7D

$GPGSV,4,3,14,22,21,318,29,18,15,147,38,03,07,323,27,01,07,274,*79

$GPRMC,221159.000,A,0010.9434,S,07829.0583,W,1.51,1.64,301216,,,A*6D

$GPVTG,1.64,T,,M,1.51,N,2.81,K,A*30

$GPVTG,349.25,T,,M,2.23,N,4.14,K,A*36

$GPGGA,221201.000,0010.9424,S,07829.0584,W,1,10,0.91,2790.8,M,13.7,M,,*5E

$GPRMC,221202.000,A,0010.9419,S,07829.0585,W,1.78,340.57,301216,,,A*64

$GPVTG,340.57,T,,M,1.78,N,3.29,K,A*3E

$GPGSV,4,2,14,32,36,061,43,14,34,026,38,27,24,188,31,31,23,005,36*70

$GPGSV,4,3,14,22,21,318,40,18,15,147,37,03,07,323,32,01,07,274,*7D

$GPRMC,221204.000,A,0010.9411,S,07829.0589,W,1.75,316.95,301216,,,A*66

$GPVTG,316.95,T,,M,1.75,N,3.24,K,A*33

$GPVTG,314.67,T,,M,1.52,N,2.82,K,A*34

$GPGGA,221206.000,0010.9405,S,07829.0595,W,1,10,0.91,2790.7,M,13.7,M,,*55

$GPRMC,221207.000,A,0010.9402,S,07829.0599,W,1.41,303.22,301216,,,A*69

$GPVTG,303.22,T,,M,1.41,N,2.61,K,A*3C

$GPGSV,4,2,14,32,36,061,41,14,34,026,39,27,24,188,20,31,23,005,40*72

$GPGSV,4,3,14,22,21,318,41,18,15,147,30,03,07,323,31,01,07,274,*78

$GPRMC,221209.000,A,0010.9397,S,07829.0606,W,1.50,296.00,301216,,,A*64

$GPVTG,296.00,T,,M,1.50,N,2.78,K,A*39

$GPVTG,284.22,T,,M,1.36,N,2.52,K,A*32

$GPGGA,221211.000,0010.9395,S,07829.0614,W,1,10,0.91,2790.7,M,13.7,M,,*57

$GPRMC,221212.000,A,0010.9393,S,07829.0618,W,1.63,274.76,301216,,,A*68

$GPVTG,274.76,T,,M,1.63,N,3.03,K,A*39

$GPGSV,4,2,14,32,36,061,40,14,34,026,38,27,24,188,17,31,23,005,41*77

$GPGSV,4,3,14,22,21,318,39,18,15,147,29,03,07,323,32,01,07,274,*7C

$GPRMC,221214.000,A,0010.9394,S,07829.0627,W,1.90,264.47,301216,,,A*6A

$GPVTG,264.47,T,,M,1.90,N,3.52,K,A*32

$GPVTG,267.01,T,,M,1.78,N,3.29,K,A*39

$GPGGA,221216.000,0010.9396,S,07829.0637,W,1,10,0.91,2790.8,M,13.7,M,,*5D

$GPRMC,221217.000,A,0010.9398,S,07829.0641,W,1.73,240.28,301216,,,A*67

$GPVTG,240.28,T,,M,1.73,N,3.21,K,A*34

$GPGSV,4,2,14,32,36,061,36,14,34,026,32,27,24,188,36,31,23,005,41*7F

$GPGSV,4,3,14,22,21,317,39,18,15,147,22,03,07,323,31,01,07,274,*7B

$GPRMC,221219.000,A,0010.9406,S,07829.0648,W,2.31,203.39,301216,,,A*62

$GPVTG,203.39,T,,M,2.31,N,4.29,K,A*39

$GPVTG,156.02,T,,M,2.80,N,5.19,K,A*3A

$GPGGA,221221.000,0010.9419,S,07829.0644,W,1,10,0.91,2790.9,M,13.7,M,,*5C

$GPRMC,221222.000,A,0010.9424,S,07829.0641,W,1.77,149.99,301216,,,A*65

$GPVTG,149.99,T,,M,1.77,N,3.27,K,A*36

$GPGSV,4,2,14,32,36,061,27,14,34,026,24,27,25,187,41,31,23,005,28*79

$GPGSV,4,3,14,22,21,317,40,18,15,147,41,03,07,323,29,01,07,274,*79

$GPRMC,221224.000,A,0010.9433,S,07829.0634,W,1.97,125.69,301216,,,A*6C

$GPVTG,125.69,T,,M,1.97,N,3.66,K,A*38

$GPVTG,110.33,T,,M,1.65,N,3.05,K,A*39

$GPGGA,221226.000,0010.9437,S,07829.0626,W,1,10,0.91,2791.0,M,13.7,M,,*5B

$GPRMC,221227.000,A,0010.9440,S,07829.0623,W,1.30,132.13,301216,,,A*6B

$GPVTG,132.13,T,,M,1.30,N,2.40,K,A*3B

$GPGSV,4,2,14,32,36,061,34,14,34,026,22,27,25,187,41,31,23,005,19*7F

$GPGSV,4,3,14,22,21,317,33,18,15,147,42,03,07,323,25,01,07,274,*72

$GPRMC,221229.000,A,0010.9445,S,07829.0619,W,1.11,119.42,301216,,,A*67

$GPVTG,119.42,T,,M,1.11,N,2.06,K,A*37

$GPVTG,128.87,T,,M,1.24,N,2.31,K,A*3E

$GPGGA,221231.000,0010.9448,S,07829.0614,W,1,10,0.91,2791.0,M,13.7,M,,*54

$GPRMC,221232.000,A,0010.9449,S,07829.0612,W,0.80,100.82,301216,,,A*67

$GPVTG,100.82,T,,M,0.80,N,1.48,K,A*33

$GPGSV,4,2,14,32,36,061,40,14,34,026,23,27,25,187,41,31,23,005,22*75

$GPGSV,4,3,14,22,21,317,34,18,15,147,40,03,07,322,21,01,07,274,*72

$GPRMC,221234.000,A,0010.9451,S,07829.0609,W,0.65,112.21,301216,,,A*63

$GPVTG,112.21,T,,M,0.65,N,1.20,K,A*3C

$GPVTG,167.69,T,,M,0.60,N,1.12,K,A*36

$GPGGA,221236.000,0010.9454,S,07829.0607,W,1,10,0.91,2791.1,M,13.7,M,,*5D

$GPRMC,221237.000,A,0010.9456,S,07829.0604,W,0.85,126.96,301216,,,A*6F

$GPVTG,126.96,T,,M,0.85,N,1.57,K,A*39

$PMTK010,001*2E

$PGACK,103*40

$PGACK,103*40

$PGACK,105*46

$GPGGA,221240.987,0010.9469,S,07829.0559,W,1,08,1.30,2791.8,M,13.7,M,,*56

$GPGSA,A,3,26,16,10,32,14,27,31,18,,,,,1.55,1.30,0.86*07

$GPGGA,221243.000,0010.9439,S,07829.0593,W,1,09,0.99,2790.2,M,13.7,M,,*58

$GPGSA,A,3,22,26,16,10,32,14,27,31,18,,,,1.28,0.99,0.82*0B

$GPVTG,354.46,T,,M,1.51,N,2.80,K,A*32

$GPGGA,221245.000,0010.9432,S,07829.0584,W,1,09,0.99,2790.6,M,13.7,M,,*57

$GPRMC,221246.000,A,0010.9430,S,07829.0579,W,1.34,14.42,301216,,,A*52

$GPVTG,14.42,T,,M,1.34,N,2.48,K,A*06

$GPVTG,6.92,T,,M,1.03,N,1.91,K,A*3B

$GPGGA,221248.000,0010.9426,S,07829.0572,W,1,10,0.91,2790.7,M,13.7,M,,*57

$GPRMC,221249.000,A,0010.9424,S,07829.0570,W,1.35,7.15,301216,,,A*60

$GPVTG,7.15,T,,M,1.35,N,2.50,K,A*3E

$GPGSV,4,2,15,32,37,062,40,14,34,027,41,27,25,187,34,31,22,005,42*76

$GPGSV,4,3,15,22,21,317,37,18,15,147,37,03,07,322,34,01,07,274,*74

$GPRMC,221251.000,A,0010.9416,S,07829.0568,W,1.41,358.98,301216,,,A*6E

$GPVTG,358.98,T,,M,1.41,N,2.61,K,A*33

$GPVTG,345.31,T,,M,1.24,N,2.29,K,A*33

$GPGGA,221253.000,0010.9409,S,07829.0571,W,1,10,0.91,2790.7,M,13.7,M,,*53

$GPRMC,221254.000,A,0010.9406,S,07829.0573,W,1.38,328.40,301216,,,A*6C

$GPVTG,328.40,T,,M,1.38,N,2.56,K,A*3B

$GPGSV,4,2,15,32,37,062,40,14,34,027,40,27,25,187,22,31,22,005,38*7D

$GPGSV,4,3,15,22,21,317,42,18,15,147,28,03,07,322,34,01,07,274,*78

$GPRMC,221256.000,A,0010.9402,S,07829.0579,W,1.51,302.94,301216,,,A*6E

$GPVTG,302.94,T,,M,1.51,N,2.80,K,A*3E

$GPVTG,301.51,T,,M,1.28,N,2.37,K,A*36

$GPGGA,221258.000,0010.9401,S,07829.0585,W,1,10,0.91,2790.6,M,13.7,M,,*5A

$GPRMC,221259.000,A,0010.9398,S,07829.0587,W,1.15,321.83,301216,,,A*63

$GPVTG,321.83,T,,M,1.15,N,2.13,K,A*33

$GPGSV,4,2,15,32,37,062,40,14,34,027,39,27,25,187,23,31,22,005,39*73

$GPGSV,4,3,15,22,21,317,43,18,14,147,31,03,07,322,36,01,07,274,*72

$GPRMC,221301.000,A,0010.9394,S,07829.0593,W,1.32,305.07,301216,,,A*69

$GPVTG,305.07,T,,M,1.32,N,2.44,K,A*3E

$GPVTG,314.81,T,,M,1.48,N,2.74,K,A*3E

$GPGGA,221303.000,0010.9389,S,07829.0599,W,1,10,0.91,2790.8,M,13.7,M,,*51

$GPRMC,221304.000,A,0010.9387,S,07829.0603,W,1.52,305.34,301216,,,A*62

$GPVTG,305.34,T,,M,1.52,N,2.82,K,A*32

$GPGSV,4,2,15,32,37,062,38,14,34,027,39,27,25,187,22,31,22,005,37*73

$GPGSV,4,3,15,22,21,317,43,18,14,147,30,03,07,322,36,01,07,274,*73

$GPRMC,221306.000,A,0010.9384,S,07829.0610,W,1.07,289.87,301216,,,A*6C

$GPVTG,289.87,T,,M,1.07,N,1.98,K,A*37

$GPVTG,312.67,T,,M,1.48,N,2.74,K,A*30

$GPGGA,221308.000,0010.9379,S,07829.0615,W,1,10,0.91,2791.0,M,13.7,M,,*5B

$GPRMC,221309.000,A,0010.9376,S,07829.0619,W,1.41,301.69,301216,,,A*64

$GPVTG,301.69,T,,M,1.41,N,2.62,K,A*32

$GPGSV,4,2,15,32,37,062,41,14,34,027,40,27,25,187,23,31,22,005,39*7C

$GPGSV,4,3,15,22,21,317,31,18,14,147,29,03,07,322,28,01,07,274,*71

$PMTK011,MTKGPS*08

$PMTK010,001*2E

$GPRMC,221311.985,A,0010.9438,S,07829.0606,W,0.79,303.47,301216,,,A*6E

$GPVTG,303.47,T,,M,0.79,N,1.47,K,A*32

$GPVTG,304.48,T,,M,1.62,N,3.01,K,A*31

$GPGGA,221315.000,0010.9376,S,07829.0628,W,1,10,0.91,2788.4,M,13.7,M,,*5A

$GPGSV,4,1,15,26,77,355,42,16,67,222,32,51,56,270,35,10,46,154,35*7D

$GPGSV,4,2,15,32,37,062,44,14,34,027,38,27,25,187,21,31,22,005,34*79

$GPVTG,331.13,T,,M,1.05,N,1.95,K,A*37

$GPGGA,221318.000,0010.9362,S,07829.0642,W,1,10,0.91,2790.0,M,13.7,M,,*53

$GPRMC,221319.000,A,0010.9360,S,07829.0645,W,0.93,306.69,301216,,,A*62

$GPVTG,306.69,T,,M,0.93,N,1.73,K,A*38

$GPVTG,314.96,T,,M,1.17,N,2.17,K,A*37

$GPGGA,221321.000,0010.9354,S,07829.0648,W,1,10,0.91,2790.9,M,13.7,M,,*5F

$GPRMC,221322.000,A,0010.9352,S,07829.0648,W,0.81,337.67,301216,,,A*69

$GPVTG,337.67,T,,M,0.81,N,1.50,K,A*36

$GPVTG,355.14,T,,M,0.92,N,1.70,K,A*36

$GPGGA,221324.000,0010.9344,S,07829.0648,W,1,10,0.91,2791.3,M,13.7,M,,*50

$GPRMC,221325.000,A,0010.9340,S,07829.0649,W,1.08,350.66,301216,,,A*6C

$GPVTG,350.66,T,,M,1.08,N,2.00,K,A*30

$GPGSV,4,2,15,32,37,062,42,14,34,027,38,27,25,187,32,31,22,005,42*7C

$GPGSV,4,3,15,22,21,317,39,18,14,147,35,03,07,322,31,01,07,274,*7C

$GPRMC,221327.000,A,0010.9335,S,07829.0648,W,0.89,349.52,301216,,,A*6A

$GPVTG,349.52,T,,M,0.89,N,1.66,K,A*34

$GPVTG,346.83,T,,M,1.03,N,1.91,K,A*3C

$PGACK,103*40

$PMTK010,002*2D

$GPGGA,221329.901,0010.9292,S,07829.0655,W,1,ÿ$PGACK,103*40

$PMTK010,002*2D

$GPGGA,221331.440,0010.9298,S,07829.0633,W,1,10,0.91,2786.1,M,13.7,M,,*5C

$GPGGA,221333.000,0010.9315,S,07829.0658,W,1,10,0.91,2789.1,M,13.7,M,,*58

$GPGSA,A,3,26,16,10,32,14,27,31,22,18,03,,,1.20,0.91,0.78*0D

$GPVTG,338.00,T,,M,1.16,N,2.15,K,A*35

$GPGGA,221335.000,0010.9310,S,07829.0663,W,1,10,0.91,2790.3,M,13.7,M,,*59

$GPRMC,221336.000,A,0010.9307,S,07829.0664,W,1.23,326.44,301216,,,A*6A

$GPVTG,326.44,T,,M,1.23,N,2.29,K,A*33

$GPVTG,340.87,T,,M,1.08,N,2.00,K,A*3E

$GPGGA,221338.000,0010.9298,S,07829.0672,W,1,10,0.91,2791.2,M,13.7,M,,*55

$GPRMC,221339.000,A,0010.9294,S,07829.0670,W,1.16,342.48,301216,,,A*63

$GPVTG,342.48,T,,M,1.16,N,2.16,K,A*37

$GPGSV,4,2,15,32,37,062,41,14,35,027,40,27,25,187,26,31,22,005,42*74

$GPGSV,4,3,15,22,21,317,41,18,14,147,33,03,07,322,34,01,07,273,*77

$GPRMC,221341.000,A,0010.9288,S,07829.0674,W,1.21,323.46,301216,,,A*68

$GPVTG,323.46,T,,M,1.21,N,2.25,K,A*3A

$GPVTG,346.43,T,,M,1.33,N,2.46,K,A*3A

$GPGGA,221343.000,0010.9283,S,07829.0677,W,1,10,0.91,2792.0,M,13.7,M,,*57

$GPRMC,221344.000,A,0010.9281,S,07829.0677,W,1.02,347.65,301216,,,A*65

$GPVTG,347.65,T,,M,1.02,N,1.89,K,A*3D

$GPGSV,4,2,15,32,37,062,41,14,35,027,38,27,25,187,23,31,22,005,43*7F

$GPGSV,4,3,15,22,21,317,41,18,14,147,35,03,07,322,35,01,07,273,*70

$GPRMC,221346.000,A,0010.9278,S,07829.0678,W,0.49,344.98,301216,,,A*61

$GPVTG,344.98,T,,M,0.49,N,0.92,K,A*39

$GPVTG,314.08,T,,M,0.15,N,0.27,K,A*32

$GPGGA,221348.000,0010.9275,S,07829.0678,W,1,10,0.91,2792.2,M,13.7,M,,*58

$GPRMC,221349.000,A,0010.9272,S,07829.0680,W,1.65,315.62,301216,,,A*6D

$GPVTG,315.62,T,,M,1.65,N,3.05,K,A*3A

$GPGSV,4,2,15,32,37,062,41,14,35,027,38,27,25,187,18,31,22,005,42*76

$GPGSV,4,3,15,22,21,317,43,18,14,147,31,03,07,322,34,01,07,273,*77

$GPRMC,221351.000,A,0010.9267,S,07829.0687,W,1.51,317.50,301216,,,A*63

$GPVTG,317.50,T,,M,1.51,N,2.79,K,A*34

$GPVTG,323.95,T,,M,1.50,N,2.78,K,A*3A

$GPGGA,221353.000,0010.9262,S,07829.0691,W,1,10,0.91,2792.2,M,13.7,M,,*53

$GPRMC,221354.000,A,0010.9259,S,07829.0693,W,1.54,331.05,301216,,,A*6F

$GPVTG,331.05,T,,M,1.54,N,2.85,K,A*36

$GPGSV,4,2,15,32,37,062,42,14,35,027,37,27,25,187,29,31,22,005,43*79

$GPGSV,4,3,15,22,21,317,42,18,14,147,33,03,07,322,33,01,07,273,*73

$GPRMC,221356.000,A,0010.9252,S,07829.0697,W,1.05,322.97,301216,,,A*6F

$GPVTG,322.97,T,,M,1.05,N,1.95,K,A*39

$GPVTG,332.90,T,,M,1.31,N,2.42,K,A*31

$GPGGA,221358.000,0010.9247,S,07829.0701,W,1,10,0.91,2791.7,M,13.7,M,,*51

$GPRMC,221359.000,A,0010.9243,S,07829.0703,W,1.16,326.49,301216,,,A*69

$GPVTG,326.49,T,,M,1.16,N,2.15,K,A*37

$GPGSV,4,2,15,32,37,062,42,14,35,027,38,27,25,187,31,31,22,005,43*7F

$GPGSV,4,3,15,22,21,317,41,18,14,147,33,03,07,322,32,01,07,273,*71

$GPRMC,221401.000,A,0010.9238,S,07829.0706,W,1.42,322.99,301216,,,A*62

$GPVTG,322.99,T,,M,1.42,N,2.62,K,A*3F

$GPVTG,336.86,T,,M,1.43,N,2.64,K,A*33

$GPGGA,221403.000,0010.9231,S,07829.0709,W,1,10,0.91,2791.9,M,13.7,M,,*5F

$GPRMC,221404.000,A,0010.9228,S,07829.0711,W,1.55,313.03,301216,,,A*67

$GPVTG,313.03,T,,M,1.55,N,2.87,K,A*33

$GPGSV,4,2,15,32,37,062,43,14,35,027,39,27,25,187,29,31,22,005,42*77

$GPGSV,4,3,15,22,21,317,39,18,14,147,33,03,07,322,32,01,07,273,*7E

$GPRMC,221406.000,A,0010.9222,S,07829.0717,W,1.66,323.34,301216,,,A*6E

$GPVTG,323.34,T,,M,1.66,N,3.08,K,A*32

$GPVTG,304.11,T,,M,1.77,N,3.29,K,A*33

$GPGGA,221408.000,0010.9217,S,07829.0723,W,1,10,0.91,2792.1,M,13.7,M,,*53

$GPRMC,221409.000,A,0010.9215,S,07829.0725,W,1.09,322.85,301216,,,A*66

$GPVTG,322.85,T,,M,1.09,N,2.01,K,A*38

$GPGSV,4,2,15,32,37,062,42,14,35,027,40,27,25,187,24,31,22,005,40*77

$GPGSV,4,3,15,22,21,317,39,18,14,147,33,03,08,322,26,01,07,273,*74

$GPRMC,221411.000,A,0010.9208,S,07829.0729,W,1.56,341.18,301216,,,A*64

$GPVTG,341.18,T,,M,1.56,N,2.90,K,A*3B

$GPVTG,335.29,T,,M,1.25,N,2.32,K,A*36

$GPGGA,221413.000,0010.9203,S,07829.0733,W,1,10,0.91,2792.2,M,13.7,M,,*5E

$GPRMC,221414.000,A,0010.9200,S,07829.0735,W,1.16,336.48,301216,,,A*65

$GPVTG,336.48,T,,M,1.16,N,2.15,K,A*37

$GPGSV,4,2,15,32,37,062,43,14,35,027,38,27,25,187,31,31,22,005,45*78

$GPGSV,4,3,15,22,21,317,41,18,14,147,35,03,08,322,31,01,07,273,*7B

$GPRMC,221416.000,A,0010.9195,S,07829.0739,W,1.62,313.22,301216,,,A*6C

$GPVTG,313.22,T,,M,1.62,N,3.01,K,A*3B

$GPVTG,308.88,T,,M,1.67,N,3.10,K,A*34

$GPGGA,221418.000,0010.9189,S,07829.0747,W,1,10,0.91,2792.0,M,13.7,M,,*55

$GPRMC,221419.000,A,0010.9187,S,07829.0750,W,1.37,316.55,301216,,,A*6A

$GPVTG,316.55,T,,M,1.37,N,2.54,K,A*3F

$GPGSV,4,2,15,32,37,062,43,14,35,027,40,27,25,187,28,31,22,005,42*78

$GPGSV,4,3,15,22,21,317,43,18,14,147,30,03,08,322,21,01,07,273,*7D

$GPRMC,221421.000,A,0010.9181,S,07829.0754,W,1.16,341.58,301216,,,A*6F

$GPVTG,341.58,T,,M,1.16,N,2.15,K,A*36

$GPVTG,318.14,T,,M,1.19,N,2.20,K,A*3B

$GPGGA,221423.000,0010.9176,S,07829.0759,W,1,10,0.91,2792.0,M,13.7,M,,*52

$GPRMC,221424.000,A,0010.9172,S,07829.0761,W,1.50,325.12,301216,,,A*6E

$GPVTG,325.12,T,,M,1.50,N,2.78,K,A*33

$GPGSV,4,2,15,32,37,062,43,14,35,027,39,27,25,187,29,31,22,005,43*76

$GPGSV,4,3,15,22,21,317,43,18,14,147,32,03,08,322,24,01,07,273,*7A

$GPRMC,221426.000,A,0010.9166,S,07829.0767,W,1.59,319.76,301216,,,A*6B

$GPVTG,319.76,T,,M,1.59,N,2.94,K,A*35

$GPVTG,329.86,T,,M,1.65,N,3.05,K,A*3F

$GPGGA,221428.000,0010.9159,S,07829.0772,W,1,10,0.91,2791.9,M,13.7,M,,*57

$PMTK011,MTKGPS*08

$PMTK010,001*2E

$PMTK011,MTKGPS*08

$PMTK010,001*2E

$PMTK011,MTKGPS*08

$PMTK010,001*2E

$PMTK011,MTKGPS*08

$PMTK010,001*2E

$GPRMC,221434.350,A,0010.9132,S,07829.0782,W,1.49,318.43,301216,,,A*62

$GPVTG,318.43,T,,M,1.49,N,2.76,K,A*3F

$GPVTG,0.48,T,,M,1.46,N,2.71,K,A*36

$GPGGA,221437.000,0010.9117,S,07829.0782,W,1,09,0.99,2787.9,M,13.7,M,,*5B

$GPGSV,4,1,15,26,76,355,41,16,67,223,30,51,56,270,34,10,45,154,39*72

$GPGSV,4,2,15,32,37,063,42,14,35,027,40,27,25,187,27,22,22,317,43*74

$GPVTG,344.60,T,,M,1.32,N,2.44,K,A*3A

$GPGGA,221440.000,0010.9107,S,07829.0784,W,1,10,0.91,2790.1,M,13.7,M,,*52

$GPRMC,221441.000,A,0010.9104,S,07829.0786,W,1.56,339.06,301216,,,A*6B

$GPVTG,339.06,T,,M,1.56,N,2.90,K,A*3B

$GPVTG,321.31,T,,M,1.54,N,2.86,K,A*33

$GPGGA,221443.000,0010.9095,S,07829.0795,W,1,10,0.91,2791.4,M,13.7,M,,*5F

$GPGSA,A,3,18,26,16,10,32,14,27,22,31,03,,,1.19,0.91,0.78*07

$GPRMC,221444.000,A,0010.9091,S,07829.0799,W,1.62,324.76,301216,,,A*61

$GPRMC,221445.000,A,0010.9089,S,07829.0802,W,1.46,305.44,301216,,,A*60

$GPVTG,305.44,T,,M,1.46,N,2.70,K,A*3D

$GPVTG,310.01,T,,M,0.90,N,1.67,K,A*37

$GPGGA,221447.000,0010.9084,S,07829.0808,W,1,09,0.99,2792.3,M,13.7,M,,*54

$GPGSV,4,1,15,26,76,355,39,16,67,223,31,51,56,270,33,10,45,154,36*74

$GPGSV,4,2,15,32,37,063,42,14,35,028,39,27,25,187,34,22,22,317,38*7B

$GPVTG,321.03,T,,M,1.16,N,2.16,K,A*3D

$GPGGA,221450.000,0010.9080,S,07829.0815,W,1,10,0.91,2792.7,M,13.7,M,,*5E

$GPRMC,221451.000,A,0010.9078,S,07829.0817,W,1.30,315.91,301216,,,A*67

$GPVTG,315.91,T,,M,1.30,N,2.41,K,A*37

$GPVTG,325.22,T,,M,1.36,N,2.53,K,A*39

$GPGGA,221453.000,0010.9074,S,07829.0822,W,1,10,0.91,2792.8,M,13.7,M,,*5D

$GPGSA,A,3,18,26,16,10,32,14,27,22,31,,,,1.28,0.99,0.82*0B

$GPRMC,221454.000,A,0010.9074,S,07829.0826,W,0.96,278.18,301216,,,A*6A

$GPRMC,221455.000,A,0010.9076,S,07829.0828,W,0.57,254.07,301216,,,A*6A

$GPVTG,254.07,T,,M,0.57,N,1.06,K,A*3C

$GPVTG,273.68,T,,M,0.56,N,1.03,K,A*34

$GPGGA,221457.000,0010.9080,S,07829.0831,W,1,09,0.99,2792.7,M,13.7,M,,*5F

$GPGSV,4,1,15,26,76,355,37,16,67,223,41,51,56,270,38,10,45,154,42*75

$GPGSV,4,2,15,32,37,063,32,14,35,028,26,27,25,187,42,22,22,317,27*7D

$GPVTG,58.10,T,,M,0.10,N,0.18,K,A*09

$GPGGA,221500.000,0010.9084,S,07829.0830,W,1,09,0.99,2792.6,M,13.7,M,,*58

$GPRMC,221501.000,A,0010.9085,S,07829.0830,W,0.04,100.66,301216,,,A*6C

$GPVTG,100.66,T,,M,0.04,N,0.08,K,A*30

$GPVTG,114.93,T,,M,0.14,N,0.25,K,A*31

$GPGGA,221503.000,0010.9086,S,07829.0829,W,1,09,0.99,2792.5,M,13.7,M,,*52

$GPGSA,A,3,18,26,16,10,32,14,27,22,31,,,,1.28,0.99,0.82*0B

$GPRMC,221504.000,A,0010.9089,S,07829.0828,W,0.76,148.58,301216,,,A*68

$GPRMC,221505.000,A,0010.9091,S,07829.0826,W,0.93,139.10,301216,,,A*6F

$GPVTG,139.10,T,,M,0.93,N,1.72,K,A*39

$GPVTG,139.31,T,,M,1.21,N,2.25,K,A*33

$GPGGA,221507.000,0010.9098,S,07829.0822,W,1,09,0.99,2792.4,M,13.7,M,,*53

$GPGSV,4,1,15,26,76,356,35,16,67,223,39,51,56,270,38,10,45,154,41*78

$GPGSV,4,2,15,32,37,063,29,14,35,028,28,27,25,186,40,22,22,317,34*78

$GPVTG,142.80,T,,M,1.58,N,2.92,K,A*37

$GPGGA,221510.000,0010.9109,S,07829.0815,W,1,09,0.99,2792.3,M,13.7,M,,*5F

$GPRMC,221511.000,A,0010.9112,S,07829.0814,W,1.27,150.60,301216,,,A*67

$GPVTG,150.60,T,,M,1.27,N,2.35,K,A*3F

$GPVTG,151.33,T,,M,1.21,N,2.25,K,A*3F

$GPGGA,221513.000,0010.9118,S,07829.0811,W,1,09,0.99,2792.3,M,13.7,M,,*58

$GPGSA,A,3,18,26,16,10,32,14,27,22,31,,,,1.28,0.99,0.82*0B

$GPRMC,221514.000,A,0010.9121,S,07829.0809,W,1.15,144.62,301216,,,A*68

$GPRMC,221515.000,A,0010.9123,S,07829.0808,W,1.16,142.52,301216,,,A*6C

$GPVTG,142.52,T,,M,1.16,N,2.15,K,A*3D

$GPVTG,149.64,T,,M,1.15,N,2.13,K,A*36

$GPGGA,221517.000,0010.9130,S,07829.0807,W,1,09,0.99,2792.2,M,13.7,M,,*50

$GPGSV,4,1,15,26,76,356,28,16,67,223,40,51,56,270,38,10,45,154,42*79

$GPGSV,4,2,15,32,37,063,30,14,35,028,24,27,25,186,39,22,22,317,37*71

$GPVTG,143.73,T,,M,0.98,N,1.81,K,A*36

$GPGGA,221520.000,0010.9138,S,07829.0801,W,1,10,0.91,2792.2,M,13.7,M,,*5A

$GPRMC,221521.000,A,0010.9141,S,07829.0799,W,1.20,142.63,301216,,,A*6F

$GPVTG,142.63,T,,M,1.20,N,2.23,K,A*3F

$GPVTG,145.06,T,,M,1.23,N,2.28,K,A*33

$GPGGA,221523.000,0010.9147,S,07829.0795,W,1,10,0.91,2792.2,M,13.7,M,,*53

$GPRMC,221524.000,A,0010.9150,S,07829.0793,W,1.14,147.84,301216,,,A*6B

$GPVTG,147.84,T,,M,1.14,N,2.11,K,A*35

$GPVTG,149.61,T,,M,1.35,N,2.50,K,A*36

$GPGGA,221526.000,0010.9157,S,07829.0789,W,1,10,0.91,2792.1,M,13.7,M,,*59

$GPRMC,221527.000,A,0010.9160,S,07829.0787,W,1.19,140.79,301216,,,A*66

$GPVTG,140.79,T,,M,1.19,N,2.21,K,A*3E

$GPGSV,4,2,15,32,37,063,31,14,35,028,32,27,25,186,35,22,22,317,38*74

$GPGSV,4,3,15,31,22,006,30,18,13,147,32,03,08,322,27,01,07,273,*78

$GPRMC,221529.000,A,0010.9166,S,07829.0783,W,1.27,154.04,301216,,,A*68

$GPVTG,154.04,T,,M,1.27,N,2.36,K,A*3A

$GPVTG,147.47,T,,M,1.23,N,2.29,K,A*35

$GPGGA,221531.000,0010.9171,S,07829.0778,W,1,10,0.91,2792.1,M,13.7,M,,*55

$GPRMC,221532.000,A,0010.9173,S,07829.0777,W,1.03,148.90,301216,,,A*6B

$GPVTG,148.90,T,,M,1.03,N,1.90,K,A*33

$GPGSV,4,2,15,32,37,063,30,14,35,028,27,27,25,186,36,22,22,317,34*7E

$GPGSV,4,3,15,31,22,006,30,18,13,147,34,03,08,322,23,01,07,273,*7A

$GPRMC,221534.000,A,0010.9179,S,07829.0772,W,1.22,149.41,301216,,,A*6C

$GPVTG,149.41,T,,M,1.22,N,2.26,K,A*33

$GPVTG,142.82,T,,M,1.04,N,1.93,K,A*3E

$GPGGA,221536.000,0010.9183,S,07829.0768,W,1,09,0.99,2792.2,M,13.7,M,,*5D

$GPRMC,221537.000,A,0010.9184,S,07829.0764,W,1.17,125.72,301216,,,A*66

$GPVTG,125.72,T,,M,1.17,N,2.16,K,A*3C

$GPGSV,4,2,15,32,37,063,28,14,35,028,24,27,25,186,36,22,22,317,27*76

$GPGSV,4,3,15,31,22,006,30,18,13,147,40,03,08,322,18,01,07,273,*71

$GPRMC,221539.000,A,0010.9189,S,07829.0760,W,1.23,146.13,301216,,,A*64

$GPVTG,146.13,T,,M,1.23,N,2.28,K,A*34

$GPVTG,128.52,T,,M,0.90,N,1.67,K,A*38

$GPGGA,221541.000,0010.9194,S,07829.0755,W,1,09,0.99,2792.2,M,13.7,M,,*55

$GPRMC,221542.000,A,0010.9197,S,07829.0751,W,1.63,140.46,301216,,,A*67

$GPVTG,140.46,T,,M,1.63,N,3.02,K,A*3F

$GPGSV,4,2,15,32,37,063,29,14,35,028,27,27,25,186,38,22,22,317,35*79

$GPGSV,4,3,15,31,22,006,30,18,13,147,30,03,08,322,27,01,07,273,*7A

$GPRMC,221544.000,A,0010.9202,S,07829.0745,W,1.24,121.60,301216,,,A*6B

$GPVTG,121.60,T,,M,1.24,N,2.30,K,A*3F

$GPVTG,136.90,T,,M,1.28,N,2.36,K,A*3C

$GPGGA,221546.000,0010.9206,S,07829.0740,W,1,10,0.91,2791.9,M,13.7,M,,*56

$GPRMC,221547.000,A,0010.9208,S,07829.0738,W,1.13,128.98,301216,,,A*62

$GPVTG,128.98,T,,M,1.13,N,2.10,K,A*37

$GPGSV,4,2,15,32,37,063,29,14,35,028,27,27,25,186,39,22,22,317,39*74

$GPGSV,4,3,15,31,22,006,32,18,13,147,33,03,08,322,27,01,07,272,*7A

$GPRMC,221549.000,A,0010.9214,S,07829.0733,W,1.42,149.36,301216,,,A*6D

$GPVTG,149.36,T,,M,1.42,N,2.62,K,A*35

$GPVTG,139.56,T,,M,1.41,N,2.61,K,A*34

$GPGGA,221551.000,0010.9220,S,07829.0728,W,1,10,0.91,2791.7,M,13.7,M,,*54

$GPRMC,221552.000,A,0010.9223,S,07829.0725,W,1.44,143.17,301216,,,A*6B

$GPVTG,143.17,T,,M,1.44,N,2.66,K,A*3E

$GPGSV,4,2,15,32,37,063,32,14,35,028,29,27,25,186,42,22,22,317,38*7D

$GPGSV,4,3,15,31,22,006,34,18,13,147,33,03,08,322,29,01,07,272,*72

$GPRMC,221554.000,A,0010.9228,S,07829.0722,W,1.12,130.27,301216,,,A*65

$GPVTG,130.27,T,,M,1.12,N,2.08,K,A*32

$GPVTG,154.83,T,,M,0.77,N,1.42,K,A*31

$GPGGA,221556.000,0010.9231,S,07829.0720,W,1,10,0.91,2791.7,M,13.7,M,,*5B

$GPRMC,221557.000,A,0010.9231,S,07829.0719,W,0.01,179.17,301216,,,A*6B

$GPVTG,179.17,T,,M,0.01,N,0.01,K,A*34

$GPGSV,4,2,15,32,37,063,26,14,35,028,24,27,25,186,41,22,22,317,40*79

$GPGSV,4,3,15,31,22,006,34,18,13,147,31,03,08,322,32,01,07,272,*7A

$GPRMC,221559.000,A,0010.9233,S,07829.0715,W,1.77,132.09,301216,,,A*6B

$GPVTG,132.09,T,,M,1.77,N,3.28,K,A*3C

$GPVTG,142.97,T,,M,1.35,N,2.50,K,A*34

$GPGGA,221601.000,0010.9239,S,07829.0710,W,1,10,0.90,2791.5,M,13.7,M,,*52

$GPRMC,221602.000,A,0010.9242,S,07829.0707,W,1.52,147.70,301216,,,A*68

$GPVTG,147.70,T,,M,1.52,N,2.81,K,A*35

$GPGSV,4,2,15,32,37,063,25,14,35,028,31,27,25,186,43,22,22,317,38*73

$GPGSV,4,3,15,31,22,006,32,18,13,147,28,03,08,322,34,01,07,272,*72

$GPRMC,221604.000,A,0010.9249,S,07829.0702,W,1.29,141.90,301216,,,A*64

$GPVTG,141.90,T,,M,1.29,N,2.39,K,A*32

$GPVTG,141.44,T,,M,1.43,N,2.65,K,A*3E

$GPGGA,221606.000,0010.9255,S,07829.0698,W,1,10,0.90,2791.4,M,13.7,M,,*5F

