
$GPGSA,A,2,21,29,32,,,,,,,,,,3.09,2.92,1.00*08

$GPRMC,162329.000,A,0011.2419,S,07828.1321,W,1.57,302.99,301216,,,A*63

$GPRMC,162330.000,A,0011.2423,S,07828.1313,W,1.68,297.86,301216,,,A*6C

$GPVTG,297.86,T,,M,1.68,N,3.12,K,A*30

$GPVTG,298.39,T,,M,1.78,N,3.30,K,A*3A

$GPGGA,162331.214,0010.9814,S,07829.0353,W,1,09,0.85,2812.0,M,13.7,M,,*5C

$GPGSV,3,1,11,24,59,074,37,51,56,270,,29,51,216,41,21,37,340,40*7F

$GPGSV,3,2,11,20,25,036,35,32,25,252,35,25,21,186,34,15,21,019,38*73

$GPRMC,162334.000,A,0010.9809,S,07829.0350,W,0.42,267.34,301216,,,A*6E

$GPVTG,267.34,T,,M,0.42,N,0.77,K,A*3F

$GPVTG,291.14,T,,M,1.43,N,2.66,K,A*36

$GPGGA,162336.000,0010.9805,S,07829.0353,W,1,09,0.85,2809.2,M,13.7,M,,*54

$GPRMC,162337.000,A,0010.9803,S,07829.0354,W,0.96,299.87,301216,,,A*63

$GPVTG,299.87,T,,M,0.96,N,1.79,K,A*30

$GPGSV,3,2,11,20,25,036,33,32,25,252,35,25,21,186,29,15,21,019,42*74

$GPGSV,3,3,11,12,18,146,38,18,17,332,39,14,,,20*7B

$GPVTG,297.29,T,,M,1.12,N,2.07,K,A*3D

$GPGGA,162340.000,0010.9794,S,07829.0355,W,1,09,0.85,2804.5,M,13.7,M,,*5E

$GPRMC,162341.000,A,0010.9792,S,07829.0357,W,1.19,304.91,301216,,,A*62

$GPVTG,304.91,T,,M,1.19,N,2.21,K,A*3A

$GPVTG,313.66,T,,M,1.31,N,2.43,K,A*3A

$GPGGA,162343.000,0010.9788,S,07829.0361,W,1,09,0.85,2802.1,M,13.7,M,,*55

$GPGSA,A,3,15,20,18,21,29,24,32,25,12,,,,1.21,0.85,0.86*07

$GPRMC,162344.000,A,0010.9786,S,07829.0364,W,1.21,316.57,301216,,,A*60

$GPRMC,162345.000,A,0010.9784,S,07829.0366,W,1.15,308.47,301216,,,A*68

$GPVTG,308.47,T,,M,1.15,N,2.13,K,A*30

$GPVTG,294.94,T,,M,1.24,N,2.29,K,A*31

$GPGGA,162347.000,0010.9780,S,07829.0371,W,1,09,0.85,2799.6,M,13.7,M,,*52

$GPGSV,3,1,11,24,59,074,37,29,51,216,27,21,37,340,41,48,27,270,31*72

$GPGSV,3,2,11,20,25,036,41,32,25,252,34,25,21,186,23,15,21,019,45*7D

$GPRMC,162349.000,A,0010.9777,S,07829.0375,W,0.87,303.84,301216,,,A*64

$GPVTG,303.84,T,,M,0.87,N,1.61,K,A*38

$GPVTG,312.55,T,,M,0.97,N,1.80,K,A*3A

$GPGGA,162351.000,0010.9774,S,07829.0378,W,1,09,0.85,2797.9,M,13.7,M,,*56

$GPRMC,162352.000,A,0010.9773,S,07829.0380,W,1.12,311.02,301216,,,A*60

$GPVTG,311.02,T,,M,1.12,N,2.08,K,A*34

$GPGSV,3,2,11,20,25,036,41,32,25,252,36,25,21,186,22,15,21,019,44*7F

$GPGSV,3,3,11,12,18,145,35,18,17,332,42,14,,,24*7D

$GPVTG,289.75,T,,M,1.29,N,2.39,K,A*3E

$GPGGA,162355.000,0010.9767,S,07829.0389,W,1,09,0.85,2796.8,M,13.7,M,,*5E

$GPRMC,162356.000,A,0010.9765,S,07829.0392,W,1.39,303.05,301216,,,A*6D

$GPVTG,303.05,T,,M,1.39,N,2.58,K,A*3C

$GPVTG,289.93,T,,M,1.28,N,2.37,K,A*39

$GPGGA,162358.000,0010.9761,S,07829.0399,W,1,09,0.85,2796.1,M,13.7,M,,*5D

$GPRMC,162359.000,A,0010.9759,S,07829.0402,W,1.22,314.61,301216,,,A*6D

$GPVTG,314.61,T,,M,1.22,N,2.26,K,A*3B

$GPVTG,299.85,T,,M,1.19,N,2.20,K,A*3B

$GPGGA,162401.000,0010.9754,S,07829.0408,W,1,09,0.85,2795.7,M,13.7,M,,*5A

$GPRMC,162402.000,A,0010.9752,S,07829.0411,W,1.38,315.65,301216,,,A*63

$GPVTG,315.65,T,,M,1.38,N,2.56,K,A*32

$GPGSV,3,2,11,32,25,252,32,25,21,186,26,15,21,019,44,12,18,145,36*75

$GPGSV,3,3,11,33,18,090,32,18,17,332,42,14,,,20*74

$GPVTG,308.90,T,,M,1.44,N,2.67,K,A*3D

$GPGGA,162405.000,0010.9744,S,07829.0420,W,1,09,0.85,2795.3,M,13.7,M,,*51

$GPRMC,162406.000,A,0010.9741,S,07829.0422,W,1.15,310.34,301216,,,A*6B

$GPVTG,310.34,T,,M,1.15,N,2.12,K,A*3C

$GPVTG,323.47,T,,M,1.21,N,2.24,K,A*3A

$GPGGA,162408.000,0010.9735,S,07829.0426,W,1,09,0.85,2795.0,M,13.7,M,,*5F

$GPGSA,A,3,15,20,18,21,29,24,32,25,12,,,,1.21,0.85,0.86*07

$GPRMC,162409.000,A,0010.9733,S,07829.0428,W,1.23,298.51,301216,,,A*6C

$GPRMC,162410.000,A,0010.9731,S,07829.0431,W,1.53,309.76,301216,,,A*65

$GPVTG,309.76,T,,M,1.53,N,2.84,K,A*3F

$GPVTG,307.50,T,,M,1.34,N,2.48,K,A*34

$GPGGA,162412.000,0010.9726,S,07829.0436,W,1,09,0.85,2794.6,M,13.7,M,,*50

$GPGSV,3,1,11,24,59,073,35,51,56,270,32,29,51,215,28,21,38,340,42*7A

$GPGSV,3,2,11,20,25,036,41,32,25,252,32,25,21,186,27,15,21,019,43*79

$GPRMC,162414.000,A,0010.9721,S,07829.0441,W,1.25,323.10,301216,,,A*6E

$GPVTG,323.10,T,,M,1.25,N,2.32,K,A*3B

$GPVTG,311.97,T,,M,1.11,N,2.05,K,A*36

$GPGGA,162416.000,0010.9716,S,07829.0445,W,1,09,0.85,2794.4,M,13.7,M,,*51

$GPRMC,162417.000,A,0010.9713,S,07829.0447,W,1.24,312.36,301216,,,A*6D

$GPVTG,312.36,T,,M,1.24,N,2.29,K,A*36

$GPGSV,3,2,11,20,25,036,41,32,25,252,29,25,21,186,27,15,21,019,43*73

$GPGSV,3,3,11,12,18,145,37,18,17,332,44,14,,,23*7E

$GPVTG,328.31,T,,M,1.28,N,2.38,K,A*34

$GPGGA,162420.000,0010.9707,S,07829.0454,W,1,09,0.85,2793.9,M,13.7,M,,*5E

$GPRMC,162421.000,A,0010.9704,S,07829.0457,W,1.22,314.61,301216,,,A*6D

$GPVTG,314.61,T,,M,1.22,N,2.25,K,A*38

$GPVTG,327.81,T,,M,1.27,N,2.35,K,A*32

$GPGGA,162423.000,0010.9699,S,07829.0461,W,1,09,0.85,2793.6,M,13.7,M,,*52

$GPGSA,A,3,15,20,18,21,29,24,32,25,12,,,,1.21,0.85,0.86*07

$GPRMC,162424.000,A,0010.9697,S,07829.0463,W,1.06,320.86,301216,,,A*6C

$GPRMC,162425.000,A,0010.9695,S,07829.0465,W,1.18,341.76,301216,,,A*6E

$GPVTG,341.76,T,,M,1.18,N,2.19,K,A*38

$GPVTG,312.51,T,,M,1.06,N,1.97,K,A*31

$GPGGA,162427.000,0010.9690,S,07829.0468,W,1,09,0.85,2793.1,M,13.7,M,,*51

$GPGSV,3,1,11,24,58,073,37,51,56,270,30,29,51,215,28,21,38,340,40*79

$GPGSV,3,2,11,20,25,037,42,32,25,252,26,25,21,186,31,15,20,020,44*75

$GPRMC,162429.000,A,0010.9684,S,07829.0471,W,0.98,315.08,301216,,,A*66

$GPVTG,315.08,T,,M,0.98,N,1.81,K,A*3B

$GPVTG,334.43,T,,M,1.31,N,2.43,K,A*38

$GPGGA,162431.000,0010.9678,S,07829.0474,W,1,09,0.85,2792.7,M,13.7,M,,*5A

$GPRMC,162432.000,A,0010.9676,S,07829.0476,W,1.00,320.31,301216,,,A*6A

$GPVTG,320.31,T,,M,1.00,N,1.85,K,A*33

$GPGSV,3,2,11,20,25,037,41,32,25,252,27,25,21,186,31,15,20,020,44*77

$GPGSV,3,3,11,12,18,145,37,18,17,332,43,14,,,16*7F

$GPVTG,318.22,T,,M,1.07,N,1.98,K,A*31

$GPGGA,162435.000,0010.9668,S,07829.0480,W,1,09,0.85,2792.7,M,13.7,M,,*54

$GPRMC,162436.000,A,0010.9664,S,07829.0482,W,1.37,322.16,301216,,,A*65

$GPVTG,322.16,T,,M,1.37,N,2.55,K,A*3E

$GPVTG,309.52,T,,M,0.91,N,1.69,K,A*36

$GPGGA,162438.000,0010.9658,S,07829.0486,W,1,09,0.85,2793.0,M,13.7,M,,*5A

$GPRMC,162439.000,A,0010.9653,S,07829.0488,W,2.29,317.65,301216,,,A*6A

$GPVTG,317.65,T,,M,2.29,N,4.24,K,A*30

$GPVTG,249.25,T,,M,1.23,N,2.28,K,A*3D

$GPGGA,162441.000,0010.9651,S,07829.0494,W,1,09,0.85,2793.0,M,13.7,M,,*5E

$GPRMC,162442.000,A,0010.9651,S,07829.0498,W,1.36,270.35,301216,,,A*6D

$GPVTG,270.35,T,,M,1.36,N,2.52,K,A*3F

$GPGSV,3,2,11,32,26,252,26,20,25,037,40,25,21,186,27,15,20,020,43*74

$GPGSV,3,3,11,12,18,145,37,18,17,332,42,14,,,19*71

$GPVTG,325.68,T,,M,1.37,N,2.54,K,A*31

$GPGGA,162445.000,0010.9647,S,07829.0504,W,1,09,0.85,2792.0,M,13.7,M,,*54

$GPRMC,162446.000,A,0010.9645,S,07829.0506,W,1.34,323.51,301216,,,A*6D

$GPVTG,323.51,T,,M,1.34,N,2.49,K,A*32

$GPVTG,331.08,T,,M,1.32,N,2.44,K,A*36

$GPGGA,162448.000,0010.9639,S,07829.0511,W,1,09,0.85,2791.8,M,13.7,M,,*5F

$GPGSA,A,3,15,20,18,21,29,24,32,25,12,,,,1.21,0.85,0.86*07

$GPRMC,162449.000,A,0010.9637,S,07829.0513,W,1.23,335.38,301216,,,A*6D

$GPRMC,162450.000,A,0010.9633,S,07829.0514,W,1.42,330.56,301216,,,A*6C

$GPVTG,330.56,T,,M,1.42,N,2.63,K,A*3E

$GPVTG,309.19,T,,M,1.14,N,2.11,K,A*39

$GPGGA,162452.000,0010.9628,S,07829.0519,W,1,08,1.01,2791.6,M,13.7,M,,*5E

$GPGSV,3,1,11,24,58,073,36,51,56,270,27,29,51,215,28,21,38,340,42*7C

$GPGSV,3,2,11,32,26,252,,20,25,037,41,25,21,186,30,15,20,020,42*76

$GPRMC,162454.000,A,0010.9623,S,07829.0523,W,1.16,317.22,301216,,,A*6A

$GPVTG,317.22,T,,M,1.16,N,2.15,K,A*38

$GPVTG,337.13,T,,M,1.24,N,2.30,K,A*3E

$GPGGA,162456.000,0010.9617,S,07829.0526,W,1,09,0.85,2791.4,M,13.7,M,,*54

$GPRMC,162457.000,A,0010.9615,S,07829.0528,W,1.24,319.27,301216,,,A*6D

$GPVTG,319.27,T,,M,1.24,N,2.30,K,A*35

$GPGSV,3,2,11,32,26,252,28,20,25,037,43,25,21,186,29,15,20,020,44*70

$GPGSV,3,3,11,12,18,145,38,18,17,332,43,14,,,18*7E

$GPVTG,301.16,T,,M,1.07,N,1.97,K,A*31

$GPGGA,162500.000,0010.9607,S,07829.0534,W,1,09,0.85,2791.3,M,13.7,M,,*53

$GPRMC,162501.000,A,0010.9605,S,07829.0536,W,1.23,321.78,301216,,,A*67

$GPVTG,321.78,T,,M,1.23,N,2.28,K,A*3A

$GPVTG,306.78,T,,M,1.15,N,2.13,K,A*32

$GPGGA,162503.000,0010.9600,S,07829.0541,W,1,09,0.85,2791.2,M,13.7,M,,*54

$GPGSA,A,3,15,20,18,21,29,24,32,25,12,,,,1.21,0.85,0.86*07

$GPRMC,162504.000,A,0010.9597,S,07829.0543,W,1.21,309.96,301216,,,A*60

$GPRMC,162505.000,A,0010.9595,S,07829.0546,W,1.24,306.99,301216,,,A*63

$GPVTG,306.99,T,,M,1.24,N,2.30,K,A*3E

$GPVTG,321.84,T,,M,1.14,N,2.11,K,A*37

$GPGGA,162507.000,0010.9589,S,07829.0550,W,1,09,0.85,2791.1,M,13.7,M,,*51

$GPGSV,3,1,11,24,58,072,37,51,56,270,,29,51,215,29,21,38,340,42*78

$GPGSV,3,2,11,20,26,037,42,32,26,252,30,25,21,186,30,15,20,020,43*74

$GPRMC,162509.000,A,0010.9584,S,07829.0555,W,1.49,326.13,301216,,,A*66

$GPVTG,326.13,T,,M,1.49,N,2.75,K,A*34

$GPVTG,305.86,T,,M,1.26,N,2.34,K,A*35

$GPGGA,162511.000,0010.9579,S,07829.0560,W,1,09,0.85,2791.1,M,13.7,M,,*5A

$GPRMC,162512.000,A,0010.9576,S,07829.0563,W,1.48,323.18,301216,,,A*6B

$GPVTG,323.18,T,,M,1.48,N,2.74,K,A*3A

$GPGSV,3,2,11,20,26,037,42,32,26,252,26,25,21,186,25,15,20,020,43*77

$GPGSV,3,3,11,12,18,145,35,18,17,332,44,14,,,21*7E

$GPVTG,296.96,T,,M,1.36,N,2.52,K,A*3E

$GPGGA,162515.000,0010.9569,S,07829.0572,W,1,09,0.85,2791.0,M,13.7,M,,*5D

$GPRMC,162516.000,A,0010.9566,S,07829.0575,W,1.38,318.14,301216,,,A*6A

$GPVTG,318.14,T,,M,1.38,N,2.56,K,A*39

$GPVTG,309.81,T,,M,1.33,N,2.47,K,A*3E

$GPGGA,162518.000,0010.9560,S,07829.0580,W,1,09,0.85,2790.9,M,13.7,M,,*5C

$GPGSA,A,3,15,20,18,21,29,24,25,12,,,,,1.33,1.01,0.87*09

$GPRMC,162519.000,A,0010.9557,S,07829.0582,W,1.23,325.37,301216,,,A*6A

$GPRMC,162520.000,A,0010.9554,S,07829.0584,W,1.26,311.34,301216,,,A*64

$GPVTG,311.34,T,,M,1.26,N,2.33,K,A*3E

$GPVTG,326.31,T,,M,1.36,N,2.52,K,A*39

$GPGGA,162522.000,0010.9548,S,07829.0589,W,1,09,0.85,2790.9,M,13.7,M,,*56

$GPGSV,3,1,11,24,58,072,37,29,51,215,28,21,38,340,41,48,27,270,28*7E

$GPGSV,3,2,11,20,26,037,42,32,26,252,26,25,21,186,28,15,20,020,44*7D

$GPRMC,162524.000,A,0010.9542,S,07829.0594,W,1.44,327.84,301216,,,A*6C

$GPVTG,327.84,T,,M,1.44,N,2.67,K,A*35

$GPVTG,320.73,T,,M,1.21,N,2.25,K,A*3F

$GPGGA,162526.000,0010.9537,S,07829.0598,W,1,09,0.85,2790.8,M,13.7,M,,*5B

$GPRMC,162527.000,A,0010.9531,S,07829.0600,W,3.23,352.88,301216,,,A*68

$GPVTG,352.88,T,,M,3.23,N,5.98,K,A*3F

$GPGSV,3,2,11,20,26,037,42,32,26,252,29,25,21,186,22,15,20,020,44*78

$GPGSV,3,3,11,12,18,145,32,18,17,332,44,14,,,18*73

$GPVTG,332.72,T,,M,1.23,N,2.28,K,A*32

$GPGGA,162530.000,0010.9514,S,07829.0604,W,1,09,0.85,2791.8,M,13.7,M,,*5A

$GPRMC,162531.000,A,0010.9512,S,07829.0606,W,1.10,314.92,301216,,,A*63

$GPVTG,314.92,T,,M,1.10,N,2.04,K,A*36

$GPVTG,321.86,T,,M,1.25,N,2.32,K,A*36

$GPGGA,162533.000,0010.9507,S,07829.0610,W,1,09,0.84,2791.6,M,13.7,M,,*51

$GPGSA,A,3,15,20,18,21,29,24,32,25,12,,,,1.21,0.85,0.86*07

$GPRMC,162534.000,A,0010.9504,S,07829.0612,W,1.18,313.34,301216,,,A*67

$GPRMC,162535.000,A,0010.9502,S,07829.0614,W,1.31,323.80,301216,,,A*61

$GPVTG,323.80,T,,M,1.31,N,2.44,K,A*36

$GPVTG,331.80,T,,M,1.30,N,2.41,K,A*31

$GPGGA,162537.000,0010.9497,S,07829.0618,W,1,09,0.84,2791.7,M,13.7,M,,*54

$GPGSV,3,1,11,24,58,072,38,29,51,215,27,21,38,340,42,20,26,037,41*7C

$GPGSV,3,2,11,32,26,252,27,25,21,186,32,15,20,020,43,12,18,145,31*7C

$GPRMC,162539.000,A,0010.9491,S,07829.0622,W,1.33,338.11,301216,,,A*63

$GPVTG,338.11,T,,M,1.33,N,2.46,K,A*34

$GPVTG,309.62,T,,M,0.91,N,1.68,K,A*34

$GPGGA,162541.000,0010.9486,S,07829.0625,W,1,09,0.85,2791.6,M,13.7,M,,*5B

$GPRMC,162542.000,A,0010.9483,S,07829.0628,W,1.49,324.69,301216,,,A*69

$GPVTG,324.69,T,,M,1.49,N,2.76,K,A*38

$GPGSV,3,2,11,32,26,252,29,25,21,185,25,15,20,020,43,12,18,145,36*70

$GPGSV,3,3,11,33,18,090,33,18,17,332,43,14,,,18*7F

$GPVTG,335.11,T,,M,1.31,N,2.43,K,A*3E

$GPGGA,162545.000,0010.9474,S,07829.0633,W,1,08,0.88,2791.5,M,13.7,M,,*5A

$GPRMC,162546.000,A,0010.9472,S,07829.0635,W,0.98,317.48,301216,,,A*61

$GPVTG,317.48,T,,M,0.98,N,1.82,K,A*3E

$GPVTG,339.33,T,,M,1.19,N,2.20,K,A*3D

$GPGGA,162548.000,0010.9467,S,07829.0637,W,1,08,0.88,2791.5,M,13.7,M,,*51

$GPRMC,162549.000,A,0010.9464,S,07829.0638,W,1.04,331.55,301216,,,A*68

$GPVTG,331.55,T,,M,1.04,N,1.94,K,A*35

$GPVTG,347.48,T,,M,1.22,N,2.26,K,A*36

$GPGGA,162551.000,0010.9458,S,07829.0640,W,1,09,0.85,2791.4,M,13.7,M,,*58

$GPRMC,162552.000,A,0010.9456,S,07829.0642,W,1.16,326.13,301216,,,A*69

$GPVTG,326.13,T,,M,1.16,N,2.15,K,A*38

$GPGSV,3,2,11,32,26,253,27,25,21,185,33,15,20,020,43,12,18,145,39*77

$GPGSV,3,3,11,33,18,090,34,18,17,332,43,14,,,17*77

$GPVTG,313.08,T,,M,1.18,N,2.18,K,A*37

$GPGGA,162555.000,0010.9449,S,07829.0648,W,1,09,0.84,2791.3,M,13.7,M,,*52

$GPRMC,162556.000,A,0010.9447,S,07829.0651,W,1.22,308.46,301216,,,A*64

$GPVTG,308.46,T,,M,1.22,N,2.25,K,A*30

$GPVTG,305.92,T,,M,1.23,N,2.28,K,A*38

$GPGGA,162558.000,0010.9443,S,07829.0656,W,1,08,0.88,2791.3,M,13.7,M,,*57

$GPGSA,A,3,15,20,18,21,29,24,32,25,12,,,,1.21,0.84,0.86*06

$GPRMC,162559.000,A,0010.9441,S,07829.0657,W,0.92,314.65,301216,,,A*6D

$GPRMC,162600.000,A,0010.9438,S,07829.0659,W,1.13,332.76,301216,,,A*6C

$GPVTG,332.76,T,,M,1.13,N,2.09,K,A*36

$GPVTG,322.14,T,,M,1.11,N,2.06,K,A*3E

$GPGGA,162602.000,0010.9434,S,07829.0663,W,1,09,0.84,2791.2,M,13.7,M,,*51

$GPGSV,3,1,11,24,58,072,37,29,50,214,29,21,38,340,42,20,26,037,42*7E

$GPGSV,3,2,11,32,26,253,28,25,21,185,33,15,20,020,40,12,18,144,37*74

$GPRMC,162604.000,A,0010.9429,S,07829.0666,W,1.06,310.08,301216,,,A*69

$GPVTG,310.08,T,,M,1.06,N,1.96,K,A*3E

$GPVTG,317.46,T,,M,1.36,N,2.51,K,A*38

$GPGGA,162606.000,0010.9424,S,07829.0671,W,1,09,0.84,2791.1,M,13.7,M,,*54

$GPRMC,162607.000,A,0010.9422,S,07829.0673,W,1.12,303.01,301216,,,A*6B

$GPVTG,303.01,T,,M,1.12,N,2.08,K,A*34

$GPGSV,3,2,11,32,26,253,33,25,21,185,25,15,20,020,41,12,18,144,38*77

$GPGSV,3,3,11,33,18,090,34,18,17,333,43,14,,,17*76

$GPVTG,320.01,T,,M,1.02,N,1.90,K,A*36

$GPGGA,162610.000,0010.9415,S,07829.0678,W,1,09,0.84,2791.0,M,13.7,M,,*59

$GPRMC,162611.000,A,0010.9412,S,07829.0679,W,1.08,341.45,301216,,,A*68

$GPVTG,341.45,T,,M,1.08,N,1.99,K,A*32

$GPVTG,325.21,T,,M,1.02,N,1.89,K,A*39

$GPGGA,162613.000,0010.9407,S,07829.0681,W,1,09,0.84,2791.0,M,13.7,M,,*5F

$GPGSA,A,3,15,20,18,21,29,24,32,25,12,,,,1.91,0.84,1.72*07

$GPRMC,162614.000,A,0010.9404,S,07829.0682,W,1.12,346.38,301216,,,A*68

$GPRMC,162615.000,A,0010.9401,S,07829.0683,W,0.99,335.08,301216,,,A*68

$GPVTG,335.08,T,,M,0.99,N,1.84,K,A*3D

$GPVTG,1.20,T,,M,1.29,N,2.38,K,A*3D

$GPGGA,162617.000,0010.9394,S,07829.0683,W,1,09,0.84,2791.1,M,13.7,M,,*55

$GPGSV,3,1,11,24,58,071,39,29,50,214,30,21,39,340,39,20,26,037,43*77

$GPGSV,3,2,11,32,26,253,21,25,21,185,32,15,20,020,40,12,18,144,39*72

$GPRMC,162619.000,A,0010.9389,S,07829.0683,W,0.97,11.13,301216,,,A*52

$GPVTG,11.13,T,,M,0.97,N,1.79,K,A*0E

$GPVTG,354.86,T,,M,1.03,N,1.90,K,A*3B

$GPGGA,162621.000,0010.9384,S,07829.0683,W,1,09,0.84,2791.2,M,13.7,M,,*52

$GPRMC,162622.000,A,0010.9381,S,07829.0683,W,1.23,8.36,301216,,,A*63

$GPVTG,8.36,T,,M,1.23,N,2.28,K,A*38

$GPGSV,3,2,10,32,26,253,25,25,21,185,35,15,20,020,38,12,18,144,39*7F

$GPGSV,3,3,10,33,18,090,31,18,17,333,38*7D

$GPVTG,19.54,T,,M,1.44,N,2.67,K,A*06

$GPGGA,162625.000,0010.9371,S,07829.0682,W,1,09,0.84,2791.2,M,13.7,M,,*5D

$GPRMC,162626.000,A,0010.9369,S,07829.0681,W,1.13,18.23,301216,,,A*55

$GPVTG,18.23,T,,M,1.13,N,2.09,K,A*0D

$GPVTG,7.56,T,,M,1.36,N,2.52,K,A*38

$GPGGA,162628.000,0010.9362,S,07829.0680,W,1,09,0.84,2791.4,M,13.7,M,,*56

$GPGSA,A,3,15,20,18,21,29,24,32,25,12,,,,1.91,0.84,1.72*07

$GPRMC,162629.000,A,0010.9359,S,07829.0680,W,1.37,18.01,301216,,,A*5E

$GPRMC,162630.000,A,0010.9356,S,07829.0679,W,1.15,355.79,301216,,,A*6A

$GPVTG,355.79,T,,M,1.15,N,2.14,K,A*32

$GPVTG,1.73,T,,M,1.27,N,2.35,K,A*38

$GPGGA,162632.000,0010.9349,S,07829.0679,W,1,09,0.84,2791.6,M,13.7,M,,*50

$GPGSV,3,1,10,24,58,071,40,29,50,214,36,21,39,340,36,20,26,037,41*73

$GPGSV,3,2,10,32,26,253,24,25,21,185,31,15,20,020,42,12,18,144,42*7B

$GPRMC,162634.000,A,0010.9343,S,07829.0679,W,1.30,6.68,301216,,,A*68

$GPVTG,6.68,T,,M,1.30,N,2.42,K,A*33

$GPVTG,6.24,T,,M,1.13,N,2.09,K,A*35

$GPGGA,162636.000,0010.9336,S,07829.0679,W,1,09,0.84,2791.5,M,13.7,M,,*5F

$GPRMC,162637.000,A,0010.9333,S,07829.0679,W,1.14,16.53,301216,,,A*53

$GPVTG,16.53,T,,M,1.14,N,2.11,K,A*0A

$GPGSV,3,2,10,32,26,253,21,25,21,185,34,15,20,020,42,12,18,144,41*78

$GPGSV,3,3,10,33,18,090,34,18,17,333,38*78

$GPVTG,359.65,T,,M,0.99,N,1.84,K,A*3C

$GPGGA,162640.000,0010.9324,S,07829.0678,W,1,09,0.84,2791.5,M,13.7,M,,*5C

$GPRMC,162641.000,A,0010.9322,S,07829.0678,W,0.96,351.52,301216,,,A*69

$GPVTG,351.52,T,,M,0.96,N,1.78,K,A*3C

$GPVTG,12.50,T,,M,1.18,N,2.19,K,A*09

$GPGGA,162643.000,0010.9317,S,07829.0678,W,1,09,0.84,2791.6,M,13.7,M,,*5C

$GPGSA,A,3,15,20,18,21,24,32,25,12,,,,,2.22,0.89,2.03*0F

$GPRMC,162644.000,A,0010.9316,S,07829.0677,W,0.20,99.72,301216,,,A*5C

$GPRMC,162645.000,A,0010.9315,S,07829.0677,W,0.79,3.30,301216,,,A*67

$GPVTG,3.30,T,,M,0.79,N,1.47,K,A*31

$GPVTG,41.45,T,,M,1.65,N,3.06,K,A*0E

$GPGGA,162647.000,0010.9310,S,07829.0674,W,1,09,0.84,2792.3,M,13.7,M,,*55

$GPGSV,3,1,10,24,58,071,41,29,50,214,37,21,39,340,34,20,26,038,41*7E

$GPGSV,3,2,10,32,26,253,24,25,21,185,32,15,20,020,40,12,18,144,42*7A

$GPRMC,162649.000,A,0010.9305,S,07829.0671,W,1.23,32.82,301216,,,A*59

$GPVTG,32.82,T,,M,1.23,N,2.28,K,A*0E

$GPVTG,22.44,T,,M,0.99,N,1.84,K,A*00

$GPGGA,162651.000,0010.9300,S,07829.0668,W,1,09,0.84,2792.1,M,13.7,M,,*5C

$GPRMC,162652.000,A,0010.9298,S,07829.0667,W,0.99,39.04,301216,,,A*54

$GPVTG,39.04,T,,M,0.99,N,1.83,K,A*09

$GPGSV,3,2,11,32,26,253,27,25,21,185,35,15,20,020,38,12,18,144,43*71

$GPGSV,3,3,11,33,18,089,35,18,17,333,36,02,,,35*7A

$GPVTG,38.07,T,,M,1.02,N,1.90,K,A*0A

$GPGGA,162655.000,0010.9291,S,07829.0664,W,1,09,0.84,2792.0,M,13.7,M,,*5C

$GPRMC,162656.000,A,0010.9289,S,07829.0663,W,0.92,28.82,301216,,,A*51

$GPVTG,28.82,T,,M,0.92,N,1.71,K,A*01

$GPVTG,21.04,T,,M,1.05,N,1.95,K,A*03

$GPGGA,162658.000,0010.9284,S,07829.0661,W,1,09,0.84,2792.0,M,13.7,M,,*50

$GPRMC,162659.000,A,0010.9281,S,07829.0660,W,1.05,33.44,301216,,,A*5A

$GPVTG,33.44,T,,M,1.05,N,1.94,K,A*05

$GPVTG,0.90,T,,M,0.84,N,1.56,K,A*3A

$GPGGA,162701.000,0010.9276,S,07829.0659,W,1,09,0.84,2792.0,M,13.7,M,,*5B

$GPRMC,162702.000,A,0010.9274,S,07829.0658,W,0.93,14.97,301216,,,A*51

$GPVTG,14.97,T,,M,0.93,N,1.73,K,A*09

$GPGSV,3,2,11,32,26,253,31,25,21,185,25,15,20,020,40,12,18,144,42*79

$GPGSV,3,3,11,33,18,089,34,18,17,333,37,02,,,31*7E

$GPVTG,33.41,T,,M,0.98,N,1.82,K,A*02

$GPGGA,162705.000,0010.9267,S,07829.0656,W,2,09,0.84,2791.9,M,13.7,M,0000,0000*59

$GPRMC,162706.000,A,0010.9264,S,07829.0655,W,0.93,21.19,301216,,,D*5C

$GPVTG,21.19,T,,M,0.93,N,1.73,K,D*0C

$GPVTG,21.66,T,,M,0.92,N,1.70,K,D*06

$GPGGA,162708.000,0010.9259,S,07829.0654,W,2,09,0.84,2792.0,M,13.7,M,0000,0000*51

$GPGSA,A,3,15,20,18,21,29,24,32,25,12,,,,1.92,0.84,1.72*04

$GPRMC,162709.000,A,0010.9257,S,07829.0653,W,1.03,27.79,301216,,,D*5D

$GPRMC,162710.000,A,0010.9254,S,07829.0652,W,0.93,11.18,301216,,,D*5D

$GPVTG,11.18,T,,M,0.93,N,1.72,K,D*0F

$GPVTG,14.09,T,,M,0.85,N,1.57,K,D*0A

$GPGGA,162712.000,0010.9249,S,07829.0651,W,2,09,0.84,2791.9,M,13.7,M,0000,0000*54

$GPGSV,3,1,11,24,58,071,40,29,50,214,28,21,39,340,33,20,26,038,43*75

$GPGSV,3,2,11,32,26,253,29,25,21,185,36,15,20,020,40,12,19,144,42*73

$GPRMC,162714.000,A,0010.9243,S,07829.0649,W,1.02,29.90,301216,,,D*57

$GPVTG,29.90,T,,M,1.02,N,1.89,K,D*09

$GPVTG,8.78,T,,M,0.81,N,1.49,K,D*3A

$GPGGA,162716.000,0010.9238,S,07829.0647,W,2,09,0.84,2791.7,M,13.7,M,0000,0000*5F

$GPRMC,162717.000,A,0010.9235,S,07829.0646,W,1.02,17.14,301216,,,D*5B

$GPVTG,17.14,T,,M,1.02,N,1.89,K,D*08

$GPGSV,3,2,11,32,26,253,27,25,21,185,37,15,19,020,38,12,19,144,41*7A

$GPGSV,3,3,11,33,18,089,34,18,17,333,37,02,,,40*78

$GPVTG,12.18,T,,M,1.04,N,1.92,K,D*0D

$GPGGA,162720.000,0010.9227,S,07829.0645,W,2,09,0.84,2791.7,M,13.7,M,0000,0000*56

$GPRMC,162721.000,A,0010.9225,S,07829.0644,W,0.98,25.59,301216,,,D*57

$GPVTG,25.59,T,,M,0.98,N,1.82,K,D*09

$GPVTG,19.56,T,,M,0.99,N,1.84,K,D*0E

$GPGGA,162723.000,0010.9219,S,07829.0643,W,2,09,0.84,2791.6,M,13.7,M,0000,0000*5F

$GPGSA,A,3,15,20,18,21,29,24,32,25,12,,,,1.21,0.84,0.86*06

$GPRMC,162724.000,A,0010.9217,S,07829.0642,W,0.96,29.90,301216,,,D*52

$GPRMC,162725.000,A,0010.9215,S,07829.0641,W,0.72,5.69,301216,,,D*60

$GPVTG,5.69,T,,M,0.72,N,1.34,K,D*31

$GPVTG,29.87,T,,M,0.82,N,1.53,K,D*01

$GPGGA,162727.000,0010.9211,S,07829.0639,W,2,10,0.78,2791.5,M,13.7,M,0000,0000*56

$GPGSV,3,1,11,24,58,070,40,29,50,214,33,21,39,340,33,20,26,038,43*7E

$GPGSV,3,2,11,32,26,253,28,25,21,185,35,15,19,020,40,12,19,144,40*79

$GPRMC,162729.000,A,0010.9206,S,07829.0637,W,0.94,29.95,301216,,,D*5A

$GPVTG,29.95,T,,M,0.94,N,1.74,K,D*00

$GPVTG,358.72,T,,M,0.76,N,1.41,K,D*36

$GPGGA,162731.000,0010.9201,S,07829.0636,W,2,10,0.79,2791.4,M,13.7,M,0000,0000*5F

$GPRMC,162732.000,A,0010.9200,S,07829.0635,W,0.72,22.12,301216,,,D*58

$GPVTG,22.12,T,,M,0.72,N,1.34,K,D*08

$GPGSV,3,2,11,32,26,253,31,25,21,185,37,15,19,020,40,12,19,144,39*7D

$GPGSV,3,3,11,33,18,089,34,18,17,333,37,02,07,138,38*4A

$GPVTG,5.21,T,,M,0.54,N,1.00,K,D*3E

$GPGGA,162735.000,0010.9195,S,07829.0632,W,2,10,0.79,2791.3,M,13.7,M,0000,0000*56

$GPRMC,162736.000,A,0010.9193,S,07829.0630,W,0.80,25.01,301216,,,D*58

$GPVTG,25.01,T,,M,0.80,N,1.49,K,D*0A

$GPVTG,43.85,T,,M,0.84,N,1.56,K,D*0C

$GPGGA,162738.000,0010.9190,S,07829.0628,W,2,10,0.78,2791.2,M,13.7,M,0000,0000*55

$GPGSA,A,3,02,15,20,18,21,29,24,32,25,12,,,1.14,0.78,0.84*03

$GPRMC,162739.000,A,0010.9188,S,07829.0626,W,0.68,40.98,301216,,,D*5F

$GPRMC,162740.000,A,0010.9186,S,07829.0625,W,1.08,44.96,301216,,,D*51

$GPVTG,44.96,T,,M,1.08,N,2.01,K,D*0D

$GPVTG,23.90,T,,M,1.01,N,1.87,K,D*0E

$GPGGA,162742.000,0010.9182,S,07829.0621,W,2,10,0.78,2791.2,M,13.7,M,0000,0000*52

$GPGSV,3,1,11,24,58,070,40,29,50,213,35,21,39,340,27,20,26,038,41*78

$GPGSV,3,2,11,32,26,254,37,25,21,185,38,15,19,020,37,12,19,144,42*7F

$GPRMC,162744.000,A,0010.9178,S,07829.0618,W,0.87,29.93,301216,,,D*52

$GPVTG,29.93,T,,M,0.87,N,1.62,K,D*03

$GPVTG,44.21,T,,M,0.86,N,1.60,K,D*02

$GPGGA,162746.000,0010.9174,S,07829.0615,W,2,10,0.78,2791.2,M,13.7,M,0000,0000*58

$GPRMC,162747.000,A,0010.9172,S,07829.0614,W,0.74,60.29,301216,,,D*57

$GPVTG,60.29,T,,M,0.74,N,1.37,K,D*03

$GPGSV,3,2,11,32,26,254,20,25,21,185,25,15,19,020,38,12,19,144,43*7B

$GPGSV,3,3,11,33,18,089,35,18,17,333,37,02,07,138,39*4A

$GPVTG,88.85,T,,M,0.31,N,0.58,K,D*0A

$GPGGA,162750.000,0010.9172,S,07829.0612,W,2,09,0.94,2791.2,M,13.7,M,0000,0000*54

$GPRMC,162751.000,A,0010.9171,S,07829.0612,W,0.51,28.58,301216,,,D*58

$GPVTG,28.58,T,,M,0.51,N,0.95,K,D*07

$GPVTG,43.08,T,,M,1.45,N,2.68,K,D*0B

$GPGGA,162753.000,0010.9166,S,07829.0606,W,2,10,0.78,2791.0,M,13.7,M,0000,0000*5F

$GPGSA,A,3,02,15,20,18,21,29,24,32,25,12,,,1.14,0.78,0.84*03

$GPRMC,162754.000,A,0010.9162,S,07829.0603,W,1.07,28.46,301216,,,D*52

$GPRMC,162755.000,A,0010.9161,S,07829.0602,W,0.31,88.06,301216,,,D*5B

$GPVTG,88.06,T,,M,0.31,N,0.57,K,D*0E

$GPVTG,157.85,T,,M,0.69,N,1.28,K,D*32

$GPGGA,162757.000,0010.9166,S,07829.0600,W,2,10,0.78,2791.1,M,13.7,M,0000,0000*5C

$GPGSV,3,1,11,24,58,070,30,29,50,213,40,21,39,340,34,20,26,038,23*7B

$GPGSV,3,2,11,32,26,254,42,25,21,185,42,15,19,020,38,12,19,144,37*7D

$GPRMC,162759.000,A,0010.9175,S,07829.0600,W,1.57,194.88,301216,,,D*6B

$GPVTG,194.88,T,,M,1.57,N,2.90,K,D*3C

$GPVTG,188.46,T,,M,1.32,N,2.45,K,D*38

$GPGGA,162801.000,0010.9183,S,07829.0603,W,2,10,0.78,2791.3,M,13.7,M,0000,0000*5A

$GPRMC,162802.000,A,0010.9187,S,07829.0604,W,1.43,212.21,301216,,,D*68

$GPVTG,212.21,T,,M,1.43,N,2.65,K,D*3D

$GPGSV,3,2,11,32,26,254,43,25,21,184,41,15,19,020,36,12,19,144,28*7E

$GPGSV,3,3,11,33,18,089,,18,17,333,40,02,07,138,36*43

$GPVTG,192.49,T,,M,1.40,N,2.59,K,D*34

$GPGGA,162805.000,0010.9199,S,07829.0608,W,2,10,0.78,2791.4,M,13.7,M,0000,0000*59

$GPRMC,162806.000,A,0010.9205,S,07829.0605,W,2.60,133.52,301216,,,D*62

$GPVTG,133.52,T,,M,2.60,N,4.82,K,D*34

$GPVTG,103.45,T,,M,2.38,N,4.40,K,D*32

$GPGGA,162808.000,0010.9210,S,07829.0593,W,2,10,0.78,2791.2,M,13.7,M,0000,0000*51

$GPGSA,A,3,02,15,20,18,21,29,24,32,25,12,,,1.14,0.78,0.83*04

$GPRMC,162809.000,A,0010.9211,S,07829.0588,W,1.81,104.18,301216,,,D*68

$GPRMC,162810.000,A,0010.9213,S,07829.0582,W,1.84,108.01,301216,,,D*69

$GPVTG,108.01,T,,M,1.84,N,3.40,K,D*3A

$GPVTG,120.76,T,,M,1.43,N,2.66,K,D*3E

$GPGGA,162812.000,0010.9217,S,07829.0574,W,2,10,0.78,2791.1,M,13.7,M,0000,0000*57

$GPGSV,3,1,11,24,58,069,35,29,50,213,41,21,39,340,29,20,26,038,22*7A

$GPGSV,3,2,11,32,26,254,42,25,21,184,40,15,19,020,24,12,19,144,41*72

$GPRMC,162814.000,A,0010.9221,S,07829.0567,W,1.41,117.47,301216,,,D*62

$GPVTG,117.47,T,,M,1.41,N,2.60,K,D*3C

$GPVTG,117.68,T,,M,1.25,N,2.32,K,D*34

$GPGGA,162816.000,0010.9224,S,07829.0560,W,2,10,0.78,2791.4,M,13.7,M,0000,0000*53

$GPRMC,162817.000,A,0010.9226,S,07829.0556,W,1.58,108.49,301216,,,D*6C

$GPVTG,108.49,T,,M,1.58,N,2.92,K,D*39

$GPGSV,3,2,11,32,26,254,42,25,21,184,39,15,19,020,25,12,19,144,41*7D

$GPGSV,3,3,11,18,17,333,28,02,07,138,39,34,,,*7D

$GPVTG,116.77,T,,M,1.45,N,2.68,K,D*32

$GPGGA,162820.000,0010.9231,S,07829.0545,W,2,09,0.84,2791.5,M,13.7,M,0000,0000*5F

$GPRMC,162821.000,A,0010.9232,S,07829.0541,W,1.41,110.88,301216,,,D*66

$GPVTG,110.88,T,,M,1.41,N,2.62,K,D*3A

$GPVTG,112.70,T,,M,1.50,N,2.78,K,D*34

$GPGGA,162823.000,0010.9235,S,07829.0534,W,2,10,0.78,2791.5,M,13.7,M,0000,0000*55

$GPGSA,A,3,02,15,18,21,29,24,32,25,12,,,,1.18,0.84,0.84*0E

$GPRMC,162824.000,A,0010.9237,S,07829.0530,W,1.29,99.89,301216,,,D*5F

$GPRMC,162825.000,A,0010.9238,S,07829.0526,W,1.45,111.86,301216,,,D*62

$GPVTG,111.86,T,,M,1.45,N,2.69,K,D*3A

$GPVTG,116.24,T,,M,1.46,N,2.70,K,D*3E

$GPGGA,162827.000,0010.9241,S,07829.0519,W,2,09,0.84,2791.7,M,13.7,M,0000,0000*54

$GPGSV,3,1,11,24,58,069,33,29,50,213,40,21,39,340,31,20,26,038,21*77

$GPGSV,3,2,11,32,26,254,42,25,21,184,38,15,19,021,24,12,19,143,42*78

$GPRMC,162829.000,A,0010.9244,S,07829.0512,W,1.50,106.72,301216,,,D*6B

$GPVTG,106.72,T,,M,1.50,N,2.79,K,D*32

$GPVTG,107.23,T,,M,1.51,N,2.80,K,D*30

$GPGGA,162831.000,0010.9246,S,07829.0504,W,2,10,0.78,2791.8,M,13.7,M,0000,0000*5C

$GPRMC,162832.000,A,0010.9247,S,07829.0501,W,1.25,107.35,301216,,,D*60

$GPVTG,107.35,T,,M,1.25,N,2.32,K,D*3D

$GPGSV,3,2,11,32,26,254,41,25,21,184,37,15,19,021,25,12,19,143,41*76

$GPGSV,3,3,11,18,17,334,29,02,07,138,26,38,,,*79

$GPVTG,112.06,T,,M,1.35,N,2.51,K,D*3D

$GPGGA,162835.000,0010.9251,S,07829.0491,W,2,10,0.78,2791.9,M,13.7,M,0000,0000*52

$GPRMC,162836.000,A,0010.9252,S,07829.0487,W,1.58,110.31,301216,,,D*67

$GPVTG,110.31,T,,M,1.58,N,2.92,K,D*3F

$GPVTG,115.07,T,,M,1.40,N,2.59,K,D*31

$GPGGA,162838.000,0010.9255,S,07829.0480,W,2,10,0.78,2792.1,M,13.7,M,0000,0000*50

$GPRMC,162839.000,A,0010.9256,S,07829.0477,W,1.52,108.26,301216,,,D*66

$GPVTG,108.26,T,,M,1.52,N,2.82,K,D*3B

$GPVTG,119.91,T,,M,1.55,N,2.87,K,D*35

$GPGGA,162841.000,0010.9260,S,07829.0469,W,2,09,0.84,2792.2,M,13.7,M,0000,0000*57

$GPRMC,162842.000,A,0010.9262,S,07829.0466,W,1.30,110.99,301216,,,D*64

$GPVTG,110.99,T,,M,1.30,N,2.40,K,D*3C

$GPGSV,3,2,12,32,26,254,42,25,21,184,38,15,19,021,20,12,19,143,41*7C

$GPGSV,3,3,12,18,17,334,33,02,07,138,19,41,,,,14,,,35*70

$GPVTG,121.46,T,,M,1.43,N,2.65,K,D*3F

$GPGGA,162845.000,0010.9267,S,07829.0456,W,2,09,0.84,2792.3,M,13.7,M,0000,0000*59

$GPRMC,162846.000,A,0010.9269,S,07829.0453,W,1.37,118.23,301216,,,D*63

$GPVTG,118.23,T,,M,1.37,N,2.53,K,D*30

$GPVTG,123.12,T,,M,1.50,N,2.79,K,D*33

$GPGGA,162848.000,0010.9274,S,07829.0445,W,2,10,0.78,2792.5,M,13.7,M,0000,0000*59

$GPGSA,A,3,02,15,20,18,21,29,24,32,25,12,,,1.14,0.78,0.83*04

$GPRMC,162849.000,A,0010.9275,S,07829.0442,W,1.16,112.68,301216,,,D*67

$GPRMC,162850.000,A,0010.9276,S,07829.0439,W,1.45,102.96,301216,,,D*66

$GPVTG,102.96,T,,M,1.45,N,2.69,K,D*39

$GPVTG,122.88,T,,M,1.36,N,2.52,K,D*38

$GPGGA,162852.000,0010.9280,S,07829.0432,W,2,10,0.78,2792.6,M,13.7,M,0000,0000*5A

$GPGSV,3,1,12,24,58,069,30,29,49,213,39,21,40,340,33,20,26,039,21*7C

$GPGSV,3,2,12,32,26,254,39,25,21,184,37,15,19,021,19,12,19,143,42*76

$GPRMC,162854.000,A,0010.9284,S,07829.0427,W,1.43,132.03,301216,,,D*69

$GPVTG,132.03,T,,M,1.43,N,2.66,K,D*3F

$GPVTG,128.36,T,,M,1.34,N,2.48,K,D*3E

$GPGGA,162856.000,0010.9289,S,07829.0421,W,2,09,0.84,2792.8,M,13.7,M,0000,0000*50

$GPRMC,162857.000,A,0010.9291,S,07829.0418,W,1.38,133.45,301216,,,D*6D

$GPVTG,133.45,T,,M,1.38,N,2.55,K,D*30

$GPGSV,3,2,12,32,26,254,38,25,21,184,37,15,19,021,25,12,19,143,43*79

$GPGSV,3,3,12,18,17,334,35,02,06,138,25,46,,,,14,,,42*7F

$GPVTG,142.80,T,,M,1.14,N,2.11,K,D*31

$GPGGA,162900.000,0010.9299,S,07829.0412,W,2,10,0.78,2792.8,M,13.7,M,0000,0000*58

$GPRMC,162901.000,A,0010.9303,S,07829.0411,W,1.43,157.69,301216,,,D*6C

$GPVTG,157.69,T,,M,1.43,N,2.66,K,D*30

$GPVTG,170.64,T,,M,1.26,N,2.33,K,D*3B

$GPGGA,162903.000,0010.9309,S,07829.0408,W,2,11,0.71,2792.9,M,13.7,M,0000,0000*51

$GPVTG,168.54,T,,M,1.43,N,2.65,K,D*31

$GPGGA,162905.000,0010.9317,S,07829.0407,W,2,11,0.71,2792.9,M,13.7,M,0000,0000*57

$GPVTG,165.35,T,,M,1.43,N,2.64,K,D*3A

$GPGGA,162907.000,0010.9325,S,07829.0405,W,2,11,0.71,2793.0,M,13.7,M,0000,0000*5E

$GPGSV,3,2,12,32,26,254,42,25,21,184,39,15,19,021,29,12,19,143,38*7A

$GPGSV,3,3,12,18,17,334,40,14,10,235,33,02,06,138,18,47,,,*41

$GPVTG,186.12,T,,M,1.33,N,2.46,K,D*35

$GPGGA,162910.000,0010.9336,S,07829.0406,W,2,11,0.71,2793.0,M,13.7,M,0000,0000*59

$GPVTG,185.37,T,,M,1.42,N,2.63,K,D*30

$GPGGA,162912.000,0010.9344,S,07829.0407,W,2,11,0.71,2793.1,M,13.7,M,0000,0000*5E

$GPGSV,3,2,12,32,26,254,42,25,21,184,40,15,19,021,32,12,19,143,33*75

$GPGSV,3,3,12,18,17,334,38,14,10,235,30,02,06,138,19,49,,,*42

$GPVTG,173.43,T,,M,1.32,N,2.45,K,D*39

$GPGGA,162915.000,0010.9354,S,07829.0407,W,2,11,0.71,2793.3,M,13.7,M,0000,0000*5A

$GPVTG,168.17,T,,M,1.23,N,2.29,K,D*38

$GPGGA,162917.000,0010.9361,S,07829.0406,W,2,11,0.71,2793.4,M,13.7,M,0000,0000*58

$GPGSV,3,2,12,20,26,039,32,32,26,254,43,25,21,184,38,15,19,021,34*7D

$GPGSV,3,3,12,12,19,143,38,18,17,334,37,14,10,235,29,02,06,138,29*7D

$GPVTG,174.64,T,,M,1.08,N,2.01,K,D*32

$GPGGA,162920.000,0010.9372,S,07829.0406,W,2,11,0.71,2793.5,M,13.7,M,0000,0000*5F

$GPVTG,188.10,T,,M,1.43,N,2.65,K,D*3F

$GPGGA,162922.000,0010.9379,S,07829.0406,W,2,11,0.71,2793.4,M,13.7,M,0000,0000*57

$GPGSV,3,2,12,20,26,039,34,32,26,254,43,25,21,184,40,15,19,021,25*74

$GPGSV,3,3,12,12,19,143,35,18,17,334,40,14,10,235,31,02,06,138,30*71

$GPVTG,194.98,T,,M,1.33,N,2.46,K,D*34

$GPGGA,162925.000,0010.9389,S,07829.0406,W,2,11,0.71,2793.5,M,13.7,M,0000,0000*5E

$GPVTG,187.89,T,,M,1.34,N,2.49,K,D*3E

$GPGGA,162927.000,0010.9396,S,07829.0406,W,2,11,0.71,2793.5,M,13.7,M,0000,0000*52

$GPGSV,3,2,12,20,26,039,33,32,26,254,44,25,21,184,36,15,19,021,36*77

$GPGSV,3,3,12,12,19,143,37,18,17,334,38,14,10,235,36,02,06,138,33*78

$GPVTG,189.62,T,,M,1.17,N,2.17,K,D*3F

$GPGGA,162930.000,0010.9406,S,07829.0406,W,2,10,0.74,2793.6,M,13.7,M,0000,0000*5D

$GPRMC,162931.000,A,0010.9409,S,07829.0406,W,1.14,180.94,301216,,,D*6E

$GPVTG,180.94,T,,M,1.14,N,2.12,K,D*39

$GPVTG,188.77,T,,M,1.34,N,2.48,K,D*31

$GPGGA,162933.000,0010.9415,S,07829.0407,W,2,11,0.71,2793.7,M,13.7,M,0000,0000*58

$GPGSA,A,3,02,15,20,18,21,29,24,32,14,25,12,,1.08,0.71,0.81*07

$GPRMC,162934.000,A,0010.9418,S,07829.0407,W,1.12,183.13,301216,,,D*60

$GPRMC,162935.000,A,0010.9422,S,07829.0408,W,1.23,201.10,301216,,,D*6F

$GPVTG,201.10,T,,M,1.23,N,2.28,K,D*32

$GPVTG,189.37,T,,M,1.28,N,2.37,K,D*31

$GPGGA,162937.000,0010.9428,S,07829.0409,W,2,11,0.71,2793.8,M,13.7,M,0000,0000*53

$GPGSV,3,2,12,20,26,039,35,32,26,254,44,25,21,184,41,15,19,021,25*73

$GPGSV,3,3,12,12,19,143,31,18,17,334,41,14,10,235,31,02,06,138,37*73

$GPVTG,186.36,T,,M,1.09,N,2.03,K,D*3B

$GPGGA,162940.000,0010.9438,S,07829.0410,W,2,11,0.71,2793.9,M,13.7,M,0000,0000*5B

$GPVTG,195.52,T,,M,1.33,N,2.47,K,D*32

$GPGGA,162942.000,0010.9445,S,07829.0411,W,2,11,0.71,2793.9,M,13.7,M,0000,0000*52

$GPGSV,3,2,12,20,26,039,32,32,26,254,44,25,21,184,40,15,19,021,35*74

$GPGSV,3,3,12,12,19,143,32,18,17,334,40,14,10,235,32,02,06,138,35*70

$GPVTG,199.22,T,,M,1.33,N,2.46,K,D*38

$GPGGA,162945.000,0010.9456,S,07829.0413,W,2,11,0.71,2794.0,M,13.7,M,0000,0000*5B

$GPVTG,183.74,T,,M,1.31,N,2.43,K,D*37

$GPGGA,162947.000,0010.9464,S,07829.0413,W,2,11,0.71,2794.0,M,13.7,M,0000,0000*58

$GPGSV,4,2,13,20,26,039,31,32,26,254,44,25,21,184,38,15,19,021,29*73

$GPGSV,4,3,13,12,19,143,35,18,17,334,39,14,10,235,34,02,06,138,38*74

$GPRMC,162949.000,A,0010.9472,S,07829.0412,W,1.35,170.82,301216,,,D*63

$GPVTG,170.82,T,,M,1.35,N,2.50,K,D*34

$GPVTG,183.56,T,,M,1.39,N,2.58,K,D*35

$GPGGA,162951.000,0010.9479,S,07829.0412,W,2,10,0.74,2794.0,M,13.7,M,0000,0000*56

$GPRMC,162952.000,A,0010.9483,S,07829.0412,W,1.34,182.69,301216,,,D*6E

$GPVTG,182.69,T,,M,1.34,N,2.49,K,D*35

$GPGSV,4,2,13,20,26,039,33,32,26,254,44,25,21,184,39,15,19,021,24*7D

$GPGSV,4,3,13,12,19,143,35,18,17,334,40,14,10,235,31,02,06,138,38*7F

$GPRMC,162954.000,A,0010.9491,S,07829.0413,W,1.25,188.59,301216,,,D*63

$GPVTG,188.59,T,,M,1.25,N,2.32,K,D*30

$GPVTG,177.17,T,,M,1.16,N,2.15,K,D*3F

$GPGGA,162956.000,0010.9498,S,07829.0414,W,2,11,0.71,2794.0,M,13.7,M,0000,0000*5C

$GPVTG,186.94,T,,M,1.51,N,2.80,K,D*35

$GPGGA,162958.000,0010.9506,S,07829.0414,W,2,11,0.71,2793.9,M,13.7,M,0000,0000*5A

$GPGSA,A,3,02,15,20,18,21,29,24,32,14,25,12,,1.08,0.71,0.81*07

$GPRMC,162959.000,A,0010.9510,S,07829.0413,W,0.98,164.10,301216,,,D*6E

$GPRMC,163000.000,A,0010.9513,S,07829.0413,W,1.59,191.11,301216,,,D*6E

$GPVTG,191.11,T,,M,1.59,N,2.95,K,D*32

$GPVTG,188.81,T,,M,1.41,N,2.61,K,D*31

$GPGGA,163002.000,0010.9521,S,07829.0414,W,2,11,0.71,2793.9,M,13.7,M,0000,0000*58

$GPGSV,4,2,13,20,26,039,32,32,26,255,44,25,21,184,40,15,19,021,25*72

$GPGSV,4,3,13,12,19,143,33,18,17,334,40,14,10,235,32,02,06,138,38*7A

$GPRMC,163004.000,A,0010.9528,S,07829.0415,W,1.06,192.47,301216,,,D*6E

$GPVTG,192.47,T,,M,1.06,N,1.96,K,D*38

$GPVTG,176.70,T,,M,1.21,N,2.25,K,D*38

$GPGGA,163006.000,0010.9535,S,07829.0415,W,2,11,0.71,2793.9,M,13.7,M,0000,0000*58

$GPVTG,197.91,T,,M,1.01,N,1.87,K,D*31

$GPGGA,163008.000,0010.9540,S,07829.0417,W,2,11,0.71,2793.9,M,13.7,M,0000,0000*56

$GPGSA,A,3,02,15,20,18,21,29,32,14,25,12,,,1.14,0.74,0.87*0F

$GPRMC,163009.000,A,0010.9543,S,07829.0418,W,1.15,210.03,301216,,,D*68

$GPRMC,163010.000,A,0010.9546,S,07829.0419,W,1.11,196.66,301216,,,D*6E

$GPVTG,196.66,T,,M,1.11,N,2.06,K,D*33

$GPVTG,197.56,T,,M,1.01,N,1.87,K,D*3A

$GPGGA,163012.000,0010.9551,S,07829.0421,W,2,11,0.71,2794.0,M,13.7,M,0000,0000*56

$GPGSV,4,2,13,20,26,039,30,32,26,255,44,25,21,184,41,15,19,021,34*71

$GPGSV,4,3,13,12,19,143,29,18,17,334,39,14,10,235,33,02,06,138,30*76

$GPRMC,163014.000,A,0010.9556,S,07829.0422,W,0.96,204.94,301216,,,D*68

$GPVTG,204.94,T,,M,0.96,N,1.78,K,D*32

$GPVTG,187.45,T,,M,1.22,N,2.26,K,D*30

$GPGGA,163016.000,0010.9562,S,07829.0423,W,2,11,0.71,2794.1,M,13.7,M,0000,0000*51

$GPVTG,185.40,T,,M,1.41,N,2.62,K,D*32

$GPGGA,163018.000,0010.9569,S,07829.0424,W,2,11,0.71,2794.1,M,13.7,M,0000,0000*53

$GPGSA,A,3,02,15,20,18,21,29,24,32,14,25,12,,1.08,0.71,0.81*07

$GPRMC,163019.000,A,0010.9573,S,07829.0423,W,1.14,164.19,301216,,,D*68

$GPRMC,163020.000,A,0010.9576,S,07829.0423,W,1.14,184.24,301216,,,D*67

$GPVTG,184.24,T,,M,1.14,N,2.11,K,D*35

$GPVTG,171.31,T,,M,1.02,N,1.89,K,D*3E

$GPGGA,163022.000,0010.9582,S,07829.0423,W,2,11,0.71,2794.3,M,13.7,M,0000,0000*5A

$GPGSV,4,2,13,20,26,039,21,32,26,255,31,25,21,184,32,12,19,142,36*76

$GPGSV,4,3,13,15,18,021,32,18,17,334,23,14,10,236,35,02,06,138,23*73

$GPRMC,163024.000,A,0010.9585,S,07829.0424,W,0.03,271.49,301216,,,D*6D

$GPVTG,271.49,T,,M,0.03,N,0.05,K,D*37

$GPVTG,88.64,T,,M,0.02,N,0.04,K,D*0C

$GPGGA,163026.000,0010.9584,S,07829.0425,W,2,11,0.71,2794.3,M,13.7,M,0000,0000*5E

$GPVTG,337.67,T,,M,0.67,N,1.25,K,D*39

$GPGGA,163028.000,0010.9581,S,07829.0427,W,2,11,0.71,2794.5,M,13.7,M,0000,0000*51

$GPGSA,A,3,02,15,20,18,21,29,24,32,14,25,12,,1.08,0.71,0.81*07

$GPRMC,163029.000,A,0010.9579,S,07829.0426,W,0.43,46.93,301216,,,D*54

$GPRMC,163030.000,A,0010.9579,S,07829.0428,W,0.69,268.81,301216,,,D*67

$GPVTG,268.81,T,,M,0.69,N,1.27,K,D*36

$GPVTG,257.26,T,,M,1.28,N,2.38,K,D*3E

$GPGGA,163032.000,0010.9579,S,07829.0437,W,2,11,0.71,2794.9,M,13.7,M,0000,0000*50

$GPGSV,4,2,13,20,26,040,38,32,26,255,39,25,21,183,25,12,19,142,24*7A

$GPGSV,4,3,13,15,18,021,42,18,17,334,34,14,10,236,34,02,06,138,16*75

$GPRMC,163034.000,A,0010.9581,S,07829.0449,W,2.09,257.40,301216,,,D*66

$GPVTG,257.40,T,,M,2.09,N,3.86,K,D*3A

$GPVTG,267.86,T,,M,1.32,N,2.44,K,D*37

$GPGGA,163036.000,0010.9582,S,07829.0458,W,2,11,0.71,2794.9,M,13.7,M,0000,0000*59

$GPVTG,256.48,T,,M,1.80,N,3.34,K,D*38

$GPGGA,163038.000,0010.9584,S,07829.0469,W,2,11,0.71,2794.9,M,13.7,M,0000,0000*53

$GPGSA,A,3,02,15,20,18,21,29,24,32,14,25,12,,1.08,0.71,0.81*07

$GPRMC,163039.000,A,0010.9585,S,07829.0474,W,1.38,267.39,301216,,,D*6D

$GPRMC,163040.000,A,0010.9586,S,07829.0477,W,0.68,247.53,301216,,,D*69

$GPVTG,247.53,T,,M,0.68,N,1.26,K,D*34

$GPVTG,284.73,T,,M,0.46,N,0.85,K,D*3D

$GPGGA,163042.000,0010.9586,S,07829.0480,W,2,11,0.71,2795.0,M,13.7,M,0000,0000*53

$GPGSV,4,2,13,20,26,040,28,32,26,255,45,25,21,183,40,12,19,142,37*71

$GPGSV,4,3,13,15,18,021,27,18,17,334,37,14,10,236,32,02,06,138,19*7C

$GPRMC,163044.000,A,0010.9588,S,07829.0476,W,0.87,126.16,301216,,,D*66

$GPVTG,126.16,T,,M,0.87,N,1.61,K,D*33

$GPVTG,128.05,T,,M,1.36,N,2.51,K,D*34

$GPGGA,163046.000,0010.9593,S,07829.0469,W,2,11,0.71,2794.9,M,13.7,M,0000,0000*5C

$GPVTG,116.19,T,,M,1.86,N,3.46,K,D*38

$GPGGA,163048.000,0010.9597,S,07829.0464,W,2,11,0.71,2794.8,M,13.7,M,0000,0000*5A

$GPGSA,A,3,02,15,20,18,21,29,24,32,14,25,12,,1.08,0.71,0.81*07

$GPRMC,163049.000,A,0010.9600,S,07829.0466,W,1.25,212.07,301216,,,D*64

$GPRMC,163050.000,A,0010.9602,S,07829.0466,W,0.69,178.99,301216,,,D*6F

$GPVTG,178.99,T,,M,0.69,N,1.29,K,D*33

$GPVTG,222.43,T,,M,1.22,N,2.26,K,D*3A

$GPGGA,163052.000,0010.9607,S,07829.0471,W,2,11,0.71,2794.8,M,13.7,M,0000,0000*5F

$GPGSV,4,2,13,20,26,040,36,32,26,255,40,25,21,183,23,12,19,142,36*7F

$GPGSV,4,3,13,15,18,021,40,18,17,334,35,14,10,236,27,02,06,138,26*77

$GPRMC,163054.000,A,0010.9607,S,07829.0469,W,0.48,67.77,301216,,,D*5D

$GPVTG,67.77,T,,M,0.48,N,0.89,K,D*04

$GPVTG,220.59,T,,M,0.83,N,1.54,K,D*3F

$GPGGA,163056.000,0010.9610,S,07829.0471,W,2,11,0.71,2794.7,M,13.7,M,0000,0000*52

$GPVTG,205.03,T,,M,1.54,N,2.86,K,D*30

$GPGGA,163058.000,0010.9617,S,07829.0476,W,2,11,0.71,2794.7,M,13.7,M,0000,0000*5C

$GPGSA,A,3,02,15,20,18,21,29,24,32,14,25,12,,1.08,0.71,0.81*07

$GPRMC,163059.000,A,0010.9622,S,07829.0478,W,2.33,208.83,301216,,,D*69

$GPRMC,163100.000,A,0010.9630,S,07829.0482,W,3.87,208.38,301216,,,D*6C

$GPVTG,208.38,T,,M,3.87,N,7.18,K,D*3B

$GPVTG,196.91,T,,M,4.53,N,8.39,K,D*3E

$GPGGA,163102.000,0010.9654,S,07829.0488,W,2,11,0.72,2795.2,M,13.7,M,0000,0000*53

$GPGSV,4,2,13,20,26,040,36,32,26,255,40,25,21,183,36,12,19,142,33*7E

$GPGSV,4,3,13,15,18,021,36,18,17,334,35,14,10,236,38,02,06,138,22*7C

$GPRMC,163104.000,A,0010.9686,S,07829.0494,W,6.11,195.54,301216,,,D*65

$GPVTG,195.54,T,,M,6.11,N,11.32,K,D*03

$GPVTG,189.84,T,,M,6.34,N,11.74,K,D*06

$GPGGA,163106.000,0010.9721,S,07829.0500,W,2,10,0.79,2795.8,M,13.7,M,0000,0000*55

$GPRMC,163107.000,A,0010.9739,S,07829.0502,W,6.22,185.33,301216,,,D*6D

$GPVTG,185.33,T,,M,6.22,N,11.53,K,D*04

$GPGSV,4,2,13,20,26,040,33,32,26,255,41,25,21,183,36,12,19,142,34*7D

$GPGSV,4,3,13,15,18,021,37,18,17,334,37,14,10,236,40,02,06,138,19*78

$GPRMC,163109.000,A,0010.9774,S,07829.0509,W,5.88,196.80,301216,,,D*68

$GPVTG,196.80,T,,M,5.88,N,10.89,K,D*0B

$GPVTG,194.80,T,,M,6.53,N,12.10,K,D*0E

$GPGGA,163111.000,0010.9808,S,07829.0518,W,2,11,0.72,2798.1,M,13.7,M,0000,0000*50

$GPVTG,193.88,T,,M,6.22,N,11.52,K,D*02

$GPGGA,163113.000,0010.9842,S,07829.0527,W,2,11,0.72,2798.7,M,13.7,M,0000,0000*56

$GPGSA,A,3,02,15,20,18,21,29,24,32,14,25,12,,1.57,0.72,1.40*02

$GPRMC,163114.000,A,0010.9859,S,07829.0532,W,6.08,192.57,301216,,,D*69

$GPRMC,163115.000,A,0010.9876,S,07829.0535,W,5.83,189.32,301216,,,D*6B

$GPVTG,189.32,T,,M,5.83,N,10.80,K,D*0E

$GPVTG,193.56,T,,M,5.90,N,10.94,K,D*00

$GPGGA,163117.000,0010.9908,S,07829.0542,W,2,11,0.72,2799.4,M,13.7,M,0000,0000*5C

$GPGSV,4,2,13,20,26,040,31,32,26,255,42,25,21,183,38,12,19,142,33*75

$GPGSV,4,3,13,15,18,021,36,18,17,334,38,14,10,236,37,02,06,138,36*7B

$GPRMC,163119.000,A,0010.9941,S,07829.0550,W,6.11,195.46,301216,,,D*67

$GPVTG,195.46,T,,M,6.11,N,11.32,K,D*00

$GPVTG,193.32,T,,M,6.39,N,11.83,K,D*05

$GPGGA,163121.000,0010.9976,S,07829.0556,W,2,11,0.72,2800.2,M,13.7,M,0000,0000*5C

$GPVTG,196.05,T,,M,5.87,N,10.88,K,D*08

$GPGGA,163123.000,0011.0009,S,07829.0564,W,2,11,0.72,2800.8,M,13.7,M,0000,0000*5C

$GPGSA,A,3,02,15,20,18,21,29,24,32,14,25,12,,1.57,0.72,1.40*02

$GPRMC,163124.000,A,0011.0025,S,07829.0567,W,5.69,191.27,301216,,,D*61

$GPRMC,163125.000,A,0011.0041,S,07829.0570,W,5.99,195.64,301216,,,D*68

$GPVTG,195.64,T,,M,5.99,N,11.11,K,D*02

$GPVTG,190.91,T,,M,6.11,N,11.32,K,D*0F

$GPGGA,163127.000,0011.0074,S,07829.0577,W,2,11,0.72,2800.3,M,13.7,M,0000,0000*5B

$GPGSV,4,2,13,20,26,040,33,32,26,255,41,25,21,183,37,12,19,142,32*7A

$GPGSV,4,3,13,15,18,021,37,18,17,334,37,14,10,236,38,02,06,138,29*74

$GPRMC,163129.000,A,0011.0105,S,07829.0584,W,5.30,193.12,301216,,,D*6A

$GPVTG,193.12,T,,M,5.30,N,9.83,K,D*34

$GPVTG,140.28,T,,M,4.02,N,7.44,K,D*36

$GPGGA,163131.000,0011.0116,S,07829.0572,W,2,11,0.72,2799.4,M,13.7,M,0000,0000*54

$GPVTG,21.12,T,,M,5.24,N,9.71,K,D*04

$GPGGA,163133.000,0011.0090,S,07829.0558,W,2,11,0.72,2798.7,M,13.7,M,0000,0000*53

$GPGSA,A,3,02,15,20,18,21,29,24,32,14,25,12,,1.57,0.72,1.40*02

$GPRMC,163134.000,A,0011.0074,S,07829.0552,W,5.82,20.53,301216,,,D*5F

$GPRMC,163135.000,A,0011.0058,S,07829.0546,W,5.69,19.70,301216,,,D*5B

$GPVTG,19.70,T,,M,5.69,N,10.55,K,D*3C

$GPVTG,11.22,T,,M,5.90,N,10.93,K,D*3F

$GPGGA,163137.000,0011.0024,S,07829.0536,W,2,11,0.72,2797.7,M,13.7,M,0000,0000*5F

$GPGSV,4,2,13,20,26,040,39,32,26,255,35,25,21,183,37,12,19,142,41*77

$GPGSV,4,3,13,18,18,335,25,15,18,021,37,14,10,236,32,02,06,138,36*7D

$GPRMC,163139.000,A,0010.9991,S,07829.0525,W,6.06,15.04,301216,,,D*53

$GPVTG,15.04,T,,M,6.06,N,11.23,K,D*39

$GPVTG,16.83,T,,M,5.68,N,10.52,K,D*39

$GPGGA,163141.000,0010.9958,S,07829.0514,W,2,11,0.72,2796.7,M,13.7,M,0000,0000*55

$GPVTG,8.67,T,,M,6.22,N,11.52,K,D*00

$GPGGA,163143.000,0010.9924,S,07829.0507,W,2,11,0.72,2796.6,M,13.7,M,0000,0000*5F

$GPGSA,A,3,02,15,20,18,21,29,24,32,14,25,12,,1.57,0.72,1.40*02

$GPRMC,163144.000,A,0010.9907,S,07829.0504,W,6.37,12.09,301216,,,D*5D

$GPRMC,163145.000,A,0010.9889,S,07829.0500,W,6.00,10.29,301216,,,D*5B

$GPVTG,10.29,T,,M,6.00,N,11.11,K,D*34

$GPVTG,4.17,T,,M,6.13,N,11.37,K,D*0A

$GPGGA,163147.000,0010.9855,S,07829.0496,W,2,11,0.72,2796.5,M,13.7,M,0000,0000*56

$GPGSV,4,2,13,32,27,256,32,20,26,040,40,25,21,183,35,12,19,142,41*7E

$GPGSV,4,3,13,18,18,335,29,15,18,021,37,14,10,236,30,02,06,138,25*71

$GPRMC,163149.000,A,0010.9822,S,07829.0490,W,6.53,7.85,301216,,,D*68

$GPVTG,7.85,T,,M,6.53,N,12.10,K,D*00

$GPVTG,2.60,T,,M,6.48,N,12.01,K,D*04

$GPGGA,163151.000,0010.9784,S,07829.0487,W,2,11,0.72,2796.6,M,13.7,M,0000,0000*51

$GPVTG,12.26,T,,M,6.60,N,12.24,K,D*3A

$GPGGA,163153.000,0010.9748,S,07829.0481,W,2,11,0.72,2796.4,M,13.7,M,0000,0000*57

$GPGSA,A,3,02,15,20,18,21,29,24,32,14,25,12,,1.57,0.72,1.40*02

$GPRMC,163154.000,A,0010.9731,S,07829.0479,W,6.25,10.60,301216,,,D*52

$GPRMC,163155.000,A,0010.9713,S,07829.0477,W,6.31,4.68,301216,,,D*65

$GPVTG,4.68,T,,M,6.31,N,11.69,K,D*09

$GPVTG,9.11,T,,M,6.22,N,11.53,K,D*01

$GPGGA,163157.000,0010.9678,S,07829.0473,W,2,11,0.72,2796.4,M,13.7,M,0000,0000*5C

$GPGSV,4,2,13,32,27,256,27,20,26,040,40,25,21,183,35,12,19,142,42*79

$GPGSV,4,3,13,18,18,335,33,15,18,021,37,14,10,236,34,02,05,139,33*7B

$GPRMC,163159.000,A,0010.9644,S,07829.0472,W,6.48,358.33,301216,,,D*65

$GPVTG,358.33,T,,M,6.48,N,12.01,K,D*0E

$GPVTG,359.09,T,,M,6.33,N,11.73,K,D*0C

$GPGGA,163201.000,0010.9609,S,07829.0472,W,2,11,0.72,2796.0,M,13.7,M,0000,0000*5F

$GPVTG,3.12,T,,M,5.16,N,9.57,K,D*31

$GPGGA,163203.000,0010.9580,S,07829.0470,W,2,11,0.72,2795.2,M,13.7,M,0000,0000*5C

$GPGSA,A,3,02,15,20,18,21,29,24,32,14,25,12,,1.57,0.72,1.40*02

$GPRMC,163204.000,A,0010.9567,S,07829.0465,W,5.76,34.86,301216,,,D*53

$GPRMC,163205.000,A,0010.9553,S,07829.0458,W,5.57,13.87,301216,,,D*5C

$GPVTG,13.87,T,,M,5.57,N,10.32,K,D*32

$GPVTG,14.27,T,,M,5.87,N,10.88,K,D*33

$GPGGA,163207.000,0010.9520,S,07829.0449,W,2,11,0.72,2795.9,M,13.7,M,0000,0000*53

$GPGSV,4,2,13,32,27,256,29,20,26,040,38,25,21,183,36,12,19,142,42*7B

$GPGSV,4,3,13,18,18,335,32,15,18,022,38,14,10,236,31,02,05,139,36*76

$GPRMC,163209.000,A,0010.9487,S,07829.0442,W,5.72,11.00,301216,,,D*59

$GPVTG,11.00,T,,M,5.72,N,10.59,K,D*35

$GPVTG,7.79,T,,M,4.74,N,8.79,K,D*30

$GPGGA,163211.000,0010.9463,S,07829.0442,W,2,11,0.72,2796.0,M,13.7,M,0000,0000*53

$GPVTG,206.19,T,,M,3.87,N,7.18,K,D*36

$GPGGA,163213.000,0010.9479,S,07829.0453,W,2,11,0.71,2796.7,M,13.7,M,0000,0000*5E

$GPGSA,A,3,02,15,20,18,21,29,24,32,14,25,12,,1.57,0.72,1.40*02

$GPRMC,163214.000,A,0010.9492,S,07829.0457,W,4.46,191.53,301216,,,D*6C

$GPRMC,163215.000,A,0010.9506,S,07829.0459,W,5.04,176.38,301216,,,D*6C

$GPVTG,176.38,T,,M,5.04,N,9.34,K,D*3C

$GPVTG,190.79,T,,M,6.36,N,11.79,K,D*03

$GPGGA,163217.000,0010.9543,S,07829.0465,W,2,11,0.72,2797.4,M,13.7,M,0000,0000*56

$GPGSV,4,2,13,32,27,256,42,20,26,040,33,25,21,183,38,12,19,142,31*77

$GPGSV,4,3,13,18,18,335,39,15,18,022,35,14,10,236,37,02,05,139,18*7A

$GPRMC,163219.000,A,0010.9597,S,07829.0475,W,10.66,190.00,301216,,,D*55

$GPVTG,190.00,T,,M,10.66,N,19.76,K,D*38

$GPVTG,187.11,T,,M,12.08,N,22.38,K,D*36

$GPGGA,163221.000,0010.9666,S,07829.0485,W,2,11,0.72,2797.3,M,13.7,M,0000,0000*5E

$GPVTG,187.08,T,,M,12.49,N,23.15,K,D*35

$GPGGA,163223.000,0010.9737,S,07829.0494,W,2,11,0.72,2796.4,M,13.7,M,0000,0000*5F

$GPGSA,A,3,02,15,20,18,21,29,24,32,14,25,12,,1.57,0.72,1.40*02

$GPRMC,163224.000,A,0010.9769,S,07829.0499,W,11.42,190.01,301216,,,D*5C

$GPRMC,163225.000,A,0010.9803,S,07829.0504,W,12.16,191.21,301216,,,D*5A

$GPVTG,191.21,T,,M,12.16,N,22.54,K,D*37

$GPVTG,186.15,T,,M,12.77,N,23.66,K,D*31

$GPGGA,163227.000,0010.9873,S,07829.0512,W,2,11,0.72,2792.5,M,13.7,M,0000,0000*5E

$GPGSV,4,2,13,32,27,256,42,20,26,040,33,25,21,183,35,12,19,142,31*7A

$GPGSV,4,3,13,18,18,335,38,15,18,022,35,14,10,236,38,02,05,139,22*7D

$GPRMC,163229.000,A,0010.9939,S,07829.0519,W,11.49,189.11,301216,,,D*51

$GPVTG,189.11,T,,M,11.49,N,21.28,K,D*3C

$GPVTG,184.00,T,,M,10.58,N,19.60,K,D*37

$GPGGA,163231.000,0011.0001,S,07829.0527,W,2,11,0.72,2791.6,M,13.7,M,0000,0000*5A

$GPVTG,191.72,T,,M,10.92,N,20.24,K,D*3A

$GPGGA,163233.000,0011.0059,S,07829.0538,W,2,11,0.72,2789.6,M,13.7,M,0000,0000*52

$GPGSA,A,3,02,15,20,18,21,29,24,32,14,25,12,,1.57,0.72,1.40*02

$GPRMC,163234.000,A,0011.0082,S,07829.0546,W,7.56,201.58,301216,,,D*61

$GPRMC,163235.000,A,0011.0099,S,07829.0551,W,5.51,188.92,301216,,,D*6D

$GPVTG,188.92,T,,M,5.51,N,10.22,K,D*02

$GPVTG,188.36,T,,M,5.49,N,10.17,K,D*03

$GPGGA,163237.000,0011.0128,S,07829.0552,W,2,11,0.72,2788.1,M,13.7,M,0000,0000*5B

$GPGSV,4,2,13,32,27,256,40,20,26,040,39,25,21,183,36,12,19,141,43*77

$GPGSV,4,3,13,18,18,335,28,15,18,022,25,14,10,236,39,02,05,139,25*7B

$GPRMC,163239.000,A,0011.0127,S,07829.0540,W,4.21,13.46,301216,,,D*59

$GPVTG,13.46,T,,M,4.21,N,7.79,K,D*06

$GPVTG,18.95,T,,M,5.73,N,10.61,K,D*3A

$GPGGA,163241.000,0011.0095,S,07829.0529,W,2,11,0.72,2787.2,M,13.7,M,0000,0000*5D

$GPVTG,12.24,T,,M,7.60,N,14.09,K,D*30

$GPGGA,163243.000,0011.0051,S,07829.0518,W,2,11,0.72,2788.4,M,13.7,M,0000,0000*5C

$GPVTG,8.58,T,,M,7.30,N,13.52,K,D*0C

$GPGGA,163245.000,0011.0002,S,07829.0509,W,2,11,0.72,2788.6,M,13.7,M,0000,0000*5E

$GPVTG,10.67,T,,M,8.66,N,16.04,K,D*33

$GPGGA,163247.000,0010.9949,S,07829.0501,W,2,11,0.72,2789.1,M,13.7,M,0000,0000*5C

$GPGSV,4,2,13,32,27,256,29,20,26,041,42,25,21,183,36,12,19,141,40*76

$GPGSV,4,3,13,18,18,335,33,15,18,022,39,14,11,236,31,02,05,139,31*70

$GPRMC,163249.000,A,0010.9895,S,07829.0492,W,10.59,15.33,301216,,,D*66

$GPVTG,15.33,T,,M,10.59,N,19.62,K,D*0D

$GPVTG,0.78,T,,M,11.18,N,20.71,K,D*3A

$GPGGA,163251.000,0010.9833,S,07829.0489,W,2,11,0.72,2789.5,M,13.7,M,0000,0000*52

$GPVTG,358.99,T,,M,11.38,N,21.08,K,D*36

$GPGGA,163253.000,0010.9768,S,07829.0490,W,2,11,0.72,2790.5,M,13.7,M,0000,0000*51

$GPGSA,A,3,02,15,20,18,21,29,24,32,14,25,12,,1.57,0.72,1.40*02

$GPRMC,163254.000,A,0010.9736,S,07829.0489,W,10.78,0.80,301216,,,D*59

$GPRMC,163255.000,A,0010.9703,S,07829.0484,W,12.60,10.37,301216,,,D*65

$GPVTG,10.37,T,,M,12.60,N,23.35,K,D*0F

$GPVTG,7.88,T,,M,12.39,N,22.95,K,D*3A

$GPGGA,163257.000,0010.9635,S,07829.0472,W,2,11,0.72,2790.6,M,13.7,M,0000,0000*53

$GPGSV,4,2,13,32,27,256,28,20,26,041,40,25,22,182,34,12,19,141,40*75

$GPGSV,4,3,13,18,18,335,32,15,18,022,38,14,11,236,27,02,05,139,29*7E

$GPRMC,163259.000,A,0010.9571,S,07829.0462,W,11.52,3.14,301216,,,D*57

$GPVTG,3.14,T,,M,11.52,N,21.35,K,D*3C

$GPVTG,358.53,T,,M,12.05,N,22.34,K,D*31

$GPGGA,163301.000,0010.9507,S,07829.0462,W,2,11,0.72,2789.1,M,13.7,M,0000,0000*5D

$GPVTG,9.73,T,,M,8.16,N,15.11,K,D*0E

$GPGGA,163303.000,0010.9464,S,07829.0461,W,2,11,0.72,2787.6,M,13.7,M,0000,0000*51

$GPGSA,A,3,02,15,20,18,21,29,24,32,14,25,12,,1.57,0.72,1.40*02

$GPRMC,163304.000,A,0010.9455,S,07829.0469,W,4.18,298.38,301216,,,D*66

$GPRMC,163305.000,A,0010.9459,S,07829.0479,W,4.24,228.71,301216,,,D*63

$GPVTG,228.71,T,,M,4.24,N,7.86,K,D*3D

$GPVTG,192.05,T,,M,4.25,N,7.87,K,D*3C

$GPGGA,163307.000,0010.9483,S,07829.0486,W,2,11,0.72,2788.2,M,13.7,M,0000,0000*5E

$GPGSV,4,2,13,32,27,256,41,20,26,041,30,25,22,182,37,12,19,141,38*71

$GPGSV,4,3,13,18,18,335,37,15,18,022,28,14,11,236,39,02,05,139,21*7D

$GPRMC,163309.000,A,0010.9510,S,07829.0487,W,4.70,198.73,301216,,,D*69

$GPVTG,198.73,T,,M,4.70,N,8.70,K,D*30

$GPVTG,186.59,T,,M,5.93,N,10.99,K,D*05

$GPGGA,163311.000,0010.9540,S,07829.0489,W,2,11,0.72,2789.9,M,13.7,M,0000,0000*52

$GPVTG,178.52,T,,M,5.28,N,9.78,K,D*38

$GPGGA,163313.000,0010.9566,S,07829.0488,W,2,11,0.72,2790.9,M,13.7,M,0000,0000*5D

$GPGSA,A,3,02,15,20,18,21,29,24,32,14,25,12,,1.08,0.71,0.81*07

$GPRMC,163314.000,A,0010.9576,S,07829.0485,W,3.21,155.77,301216,,,D*61

$GPRMC,163315.000,A,0010.9583,S,07829.0484,W,0.16,155.77,301216,,,D*6C

$GPVTG,155.77,T,,M,0.16,N,0.31,K,D*3C

$GPVTG,155.77,T,,M,0.06,N,0.11,K,D*3F

$GPGGA,163317.000,0010.9589,S,07829.0480,W,2,11,0.71,2792.4,M,13.7,M,0000,0000*5C

$GPGSV,4,2,13,32,27,256,39,20,26,041,30,25,22,182,29,12,19,141,41*7F

$GPGSV,4,3,13,18,18,335,33,15,18,022,34,14,11,237,43,02,05,139,22*7B

$GPRMC,163319.000,A,0010.9589,S,07829.0480,W,0.03,155.77,301216,,,D*6A

$GPVTG,155.77,T,,M,0.03,N,0.06,K,D*3C

$GPVTG,155.77,T,,M,0.04,N,0.08,K,D*35

$GPGGA,163321.000,0010.9588,S,07829.0481,W,2,10,0.74,2792.7,M,13.7,M,0000,0000*5E

$GPRMC,163322.000,A,0010.9588,S,07829.0482,W,0.06,155.77,301216,,,D*64

$GPVTG,155.77,T,,M,0.06,N,0.11,K,D*3F

$GPGSV,4,2,13,32,27,256,38,20,26,041,25,25,22,182,29,12,19,141,25*78

$GPGSV,4,3,13,18,18,335,41,15,18,022,34,14,11,237,26,02,05,139,15*79

$GPRMC,163324.000,A,0010.9589,S,07829.0483,W,0.07,155.77,301216,,,D*63

$GPVTG,155.77,T,,M,0.07,N,0.13,K,D*3C

$GPVTG,155.77,T,,M,0.04,N,0.07,K,D*3A

$GPGGA,163326.000,0010.9588,S,07829.0484,W,2,11,0.71,2793.0,M,13.7,M,0000,0000*5E

$GPVTG,155.77,T,,M,0.03,N,0.06,K,D*3C

$GPGGA,163328.000,0010.9588,S,07829.0485,W,2,11,0.71,2793.0,M,13.7,M,0000,0000*51

$GPGSA,A,3,02,15,20,18,21,29,24,32,14,25,12,,1.08,0.71,0.81*07

$GPRMC,163329.000,A,0010.9590,S,07829.0487,W,1.21,155.77,301216,,,D*67

$GPRMC,163330.000,A,0010.9592,S,07829.0489,W,0.03,155.77,301216,,,D*62

$GPVTG,155.77,T,,M,0.03,N,0.05,K,D*3F

$GPVTG,155.77,T,,M,0.01,N,0.02,K,D*3A

$GPGGA,163332.000,0010.9593,S,07829.0489,W,2,11,0.71,2793.1,M,13.7,M,0000,0000*5D

$GPGSV,4,2,13,32,27,257,46,20,26,041,34,25,22,182,37,12,19,141,26*7C

$GPGSV,4,3,13,18,18,335,38,15,18,022,34,14,11,237,32,02,05,139,16*71

$GPRMC,163334.000,A,0010.9594,S,07829.0491,W,0.11,155.77,301216,,,D*6A

$GPVTG,155.77,T,,M,0.11,N,0.21,K,D*3A

$GPVTG,155.77,T,,M,0.16,N,0.29,K,D*35

$GPGGA,163336.000,0010.9600,S,07829.0495,W,2,11,0.71,2793.1,M,13.7,M,0000,0000*5D

$GPVTG,155.77,T,,M,0.22,N,0.42,K,D*3F

$GPGGA,163338.000,0010.9612,S,07829.0504,W,2,11,0.71,2793.5,M,13.7,M,0000,0000*5D

$GPGSA,A,3,02,15,20,18,21,29,24,32,14,25,12,,1.08,0.71,0.81*07

$GPRMC,163339.000,A,0010.9615,S,07829.0505,W,0.13,155.77,301216,,,D*63

$GPRMC,163340.000,A,0010.9617,S,07829.0507,W,1.53,209.53,301216,,,D*64

$GPVTG,209.53,T,,M,1.53,N,2.84,K,D*3C

$GPVTG,219.93,T,,M,1.52,N,2.82,K,D*36

$GPGGA,163342.000,0010.9623,S,07829.0513,W,2,11,0.71,2793.8,M,13.7,M,0000,0000*59

$GPGSV,4,2,13,32,27,257,44,20,26,041,34,25,22,182,36,12,19,141,23*7A

$GPGSV,4,3,13,18,18,335,41,15,18,022,39,14,11,237,39,02,05,139,19*76

$GPRMC,163344.000,A,0010.9627,S,07829.0518,W,1.43,230.37,301216,,,D*64

$GPVTG,230.37,T,,M,1.43,N,2.66,K,D*39

$GPVTG,215.84,T,,M,1.49,N,2.76,K,D*3D

$GPGGA,163346.000,0010.9634,S,07829.0522,W,2,11,0.71,2793.9,M,13.7,M,0000,0000*58

$GPVTG,222.44,T,,M,1.40,N,2.59,K,D*31

$GPGGA,163348.000,0010.9639,S,07829.0526,W,2,11,0.71,2793.9,M,13.7,M,0000,0000*5F

$GPGSA,A,3,02,15,20,18,21,29,24,32,14,25,12,,1.08,0.71,0.81*07

$GPRMC,163349.000,A,0010.9642,S,07829.0527,W,1.20,214.83,301216,,,D*6A

$GPRMC,163350.000,A,0010.9645,S,07829.0529,W,1.19,234.98,301216,,,D*69

$GPVTG,234.98,T,,M,1.19,N,2.20,K,D*35

$GPVTG,232.53,T,,M,1.14,N,2.12,K,D*38

$GPGGA,163352.000,0010.9648,S,07829.0532,W,2,11,0.71,2794.2,M,13.7,M,0000,0000*5B

$GPGSV,4,2,13,32,27,257,42,20,26,041,34,25,22,182,33,12,19,141,28*72

$GPGSV,4,3,13,18,18,335,37,15,17,022,37,14,11,237,41,02,05,139,13*73

$GPRMC,163354.000,A,0010.9655,S,07829.0535,W,2.12,151.35,301216,,,D*6E

$GPVTG,151.35,T,,M,2.12,N,3.93,K,D*33

$GPVTG,153.79,T,,M,1.88,N,3.49,K,D*3E

$GPGGA,163356.000,0010.9662,S,07829.0538,W,2,11,0.71,2794.0,M,13.7,M,0000,0000*5F

$GPVTG,206.69,T,,M,1.12,N,2.07,K,D*34

$GPGGA,163358.000,0010.9666,S,07829.0543,W,2,11,0.71,2794.0,M,13.7,M,0000,0000*59

$GPGSA,A,3,02,15,20,18,21,29,24,32,14,25,12,,1.08,0.71,0.81*07

$GPRMC,163359.000,A,0010.9667,S,07829.0547,W,1.14,228.52,301216,,,D*6E

$GPRMC,163400.000,A,0010.9668,S,07829.0550,W,1.16,253.13,301216,,,D*67

$GPVTG,253.13,T,,M,1.16,N,2.15,K,D*3E

$GPVTG,196.96,T,,M,0.95,N,1.76,K,D*35

$GPGGA,163402.000,0010.9671,S,07829.0556,W,2,11,0.71,2793.9,M,13.7,M,0000,0000*5D

$GPGSV,4,2,13,32,27,257,44,20,26,041,33,25,22,182,34,12,19,141,23*7F

$GPGSV,4,3,13,18,18,336,39,15,17,022,38,14,11,237,41,02,05,139,16*74

$GPRMC,163404.000,A,0010.9675,S,07829.0561,W,0.97,194.58,301216,,,D*62

$GPVTG,194.58,T,,M,0.97,N,1.81,K,D*3F

$GPVTG,217.65,T,,M,1.00,N,1.85,K,D*32

$GPGGA,163406.000,0010.9680,S,07829.0565,W,2,10,0.78,2793.6,M,13.7,M,0000,0000*50

$GPRMC,163407.000,A,0010.9682,S,07829.0567,W,0.96,225.40,301216,,,D*6E

$GPVTG,225.40,T,,M,0.96,N,1.77,K,D*37

$GPGSV,4,2,13,32,27,257,43,20,26,041,35,25,22,182,29,12,19,141,23*72

$GPGSV,4,3,13,18,18,336,39,15,17,022,36,14,11,237,41,02,05,139,*7D

$GPRMC,163409.000,A,0010.9685,S,07829.0572,W,1.04,224.30,301216,,,D*6F

$GPVTG,224.30,T,,M,1.04,N,1.92,K,D*30

$GPVTG,231.15,T,,M,1.34,N,2.49,K,D*35

$GPGGA,163411.000,0010.9690,S,07829.0577,W,2,11,0.71,2793.5,M,13.7,M,0000,0000*5F

$GPVTG,214.85,T,,M,1.11,N,2.06,K,D*37

$GPGGA,163413.000,0010.9696,S,07829.0580,W,2,11,0.71,2793.5,M,13.7,M,0000,0000*53

$GPGSA,A,3,15,20,18,21,29,24,32,14,25,12,,,1.15,0.78,0.85*04

$GPRMC,163414.000,A,0010.9698,S,07829.0582,W,1.19,224.47,301216,,,D*6C

$GPRMC,163415.000,A,0010.9701,S,07829.0583,W,1.14,225.67,301216,,,D*63

$GPVTG,225.67,T,,M,1.14,N,2.11,K,D*3A

$GPVTG,244.47,T,,M,1.14,N,2.11,K,D*3F

$GPGGA,163417.000,0010.9704,S,07829.0589,W,2,11,0.71,2793.5,M,13.7,M,0000,0000*54

$GPGSV,4,2,13,32,27,257,40,20,26,041,39,25,22,182,23,12,19,141,26*72

$GPGSV,4,3,13,18,18,336,38,15,17,022,41,14,11,237,40,02,05,139,21*7E

$GPRMC,163419.000,A,0010.9707,S,07829.0594,W,1.19,259.77,301216,,,D*68

$GPVTG,259.77,T,,M,1.19,N,2.20,K,D*3F

$GPVTG,245.51,T,,M,1.17,N,2.17,K,D*3C

$GPGGA,163421.000,0010.9709,S,07829.0600,W,2,09,0.83,2793.3,M,13.7,M,0000,0000*5C

$GPRMC,163422.000,A,0010.9709,S,07829.0604,W,1.38,266.34,301216,,,D*6C

$GPVTG,266.34,T,,M,1.38,N,2.55,K,D*35

$GPGSV,4,2,13,32,27,257,42,20,26,041,41,25,22,182,21,12,19,141,31*7B

$GPGSV,4,3,13,18,18,336,41,15,17,022,41,14,11,237,38,02,05,139,*7C

$GPRMC,163424.000,A,0010.9710,S,07829.0611,W,1.52,266.87,301216,,,D*62

$GPVTG,266.87,T,,M,1.52,N,2.82,K,D*3B

$GPVTG,263.15,T,,M,1.20,N,2.22,K,D*3A

$GPGGA,163426.000,0010.9711,S,07829.0616,W,2,09,0.83,2793.0,M,13.7,M,0000,0000*56

$GPRMC,163427.000,A,0010.9712,S,07829.0618,W,1.34,265.38,301216,,,D*6D

$GPVTG,265.38,T,,M,1.34,N,2.48,K,D*3A

$GPGSV,4,2,13,32,27,257,42,20,26,041,39,25,22,182,21,12,19,141,33*76

$GPGSV,4,3,13,18,18,336,38,15,17,022,41,14,11,237,39,02,05,139,22*73

$GPRMC,163429.000,A,0010.9713,S,07829.0625,W,1.24,254.16,301216,,,D*63

$GPVTG,254.16,T,,M,1.24,N,2.29,K,D*32

$GPVTG,269.78,T,,M,1.30,N,2.40,K,D*3E

$GPGGA,163431.000,0010.9713,S,07829.0632,W,2,10,0.74,2792.8,M,13.7,M,0000,0000*5D

$GPRMC,163432.000,A,0010.9713,S,07829.0637,W,1.40,254.99,301216,,,D*6F

$GPVTG,254.99,T,,M,1.40,N,2.59,K,D*30

$GPGSV,4,2,13,32,27,257,42,20,26,041,40,25,22,182,19,12,19,141,33*73

$GPGSV,4,3,13,18,18,336,38,15,17,022,39,14,11,237,39,02,05,139,26*78

$GPRMC,163434.000,A,0010.9714,S,07829.0644,W,1.40,267.27,301216,,,D*6F

$GPVTG,267.27,T,,M,1.40,N,2.60,K,D*3F

$GPVTG,253.00,T,,M,1.23,N,2.28,K,D*34

$GPGGA,163436.000,0010.9715,S,07829.0650,W,2,10,0.74,2792.5,M,13.7,M,0000,0000*55

$GPRMC,163437.000,A,0010.9715,S,07829.0652,W,1.39,266.85,301216,,,D*6D

$GPVTG,266.85,T,,M,1.39,N,2.57,K,D*3C

$GPGSV,4,2,13,32,27,257,42,20,26,041,40,25,22,182,19,12,19,141,33*73

$GPGSV,4,3,13,18,18,336,40,15,17,022,41,14,11,237,34,02,05,139,25*76

$GPRMC,163439.000,A,0010.9715,S,07829.0659,W,1.33,274.78,301216,,,D*63

$GPVTG,274.78,T,,M,1.33,N,2.47,K,D*36

$GPVTG,262.49,T,,M,1.29,N,2.39,K,D*31

$GPGGA,163441.000,0010.9716,S,07829.0665,W,2,10,0.74,2792.6,M,13.7,M,0000,0000*53

$GPRMC,163442.000,A,0010.9716,S,07829.0669,W,1.22,270.26,301216,,,D*60

$GPVTG,270.26,T,,M,1.22,N,2.26,K,D*3E

$GPGSV,4,2,13,32,27,257,43,20,26,041,38,25,22,182,22,12,19,141,32*74

